[{"name":"Anthony Creek Campsites","type":"campsite","lat":37.9138195,"lng":-80.2840912,"description":"ANTHONY CREEK DISPERSED CAMPSITES (Camping Area)\n\nType: Camping Area | Fee: No fee required | Elevation: 2,000 feet | Activities: CAMPING, TENT | FISHING, COLD WATER","location":""},{"name":"Buffalo Lake Dispersed","type":"campsite","lat":38.5294096,"lng":-79.6908951,"description":"BUFFALO LAKE DISPERSED (Camping Area)\n\nType: Camping Area | Fee: No fee required | Elevation: feet","location":""},{"name":"Mt Langdon Camping Area","type":"campsite","lat":44.1150773,"lng":-71.2815911,"description":"MT LANGDON CAMPING AREA (Camping Area)\n\nType: Camping Area | Fee: No fee required | Elevation: feet","location":""},{"name":"A.T. Blue Mountain Shelter","type":"campsite","lat":34.8171367,"lng":-83.7667841,"description":"A.T. BLUE MOUNTAIN SHELTER (Camping Area)\n\nType: Camping Area | Fee: No fee required | Elevation: feet","location":""},{"name":"Saunders A.T. Shelter","type":"campsite","lat":36.6361183,"lng":-81.7116703,"description":"This is an Appalachain Trail shelter.\n\nType: Camping Area | Hours: Open year round, 24 hours/day | Fee: No fee required | Water: Water can be treated or filtered from nearby water ...","location":""},{"name":"Battell Shelter","type":"campsite","lat":44.1116689,"lng":-72.9372013,"description":"BATTELL SHELTER (Campground)\n\nType: Campground | Hours: Open 24 hours/day | Fee: No fee required | Water: Water can be treated or filtered from nearby water sources | Elevation: fe...","location":""},{"name":"Wine Spring Horse Camp","type":"campsite","lat":35.177229,"lng":-83.6139624,"description":"WINESPRINGS HORSE CAMP (Horse Camp)\n\nType: Horse Camp | Fees: Overnight Use: | Elevation: feet","location":""},{"name":"River Forest","type":"campsite","lat":29.0128221,"lng":-81.3897031,"description":"River Forest is a shaded group camping facility on the shores of the St. Johns River in Ocala National Forest. Located just across the river from Deland, the site is popular for gr...","location":""},{"name":"Canebrake Horse Camp","type":"campsite","lat":35.4397784,"lng":-80.0471682,"description":"Canebrake Horse Camp has 28 sites with parking spurs for horse trailers. Four of these sites are double camp sites.  Each site has a picnic table, grill, fire ring, lantern post, t...","location":""},{"name":"Bay View - Cg","type":"campsite","lat":46.4495366,"lng":-84.7806789,"description":"Camp along the shores of lake Superior the greatest single body of fresh water in the world.  Miles of sandy beach and beautiful sunset are yours to enjoy at Bay View.  There are 2...","location":""},{"name":"Laurel Creek A.T. Shelter","type":"campsite","lat":37.3608407,"lng":-80.4205588,"description":"This is an Appalachain Trail Shelter\n\nType: Camping Area | Hours: Open 24 hours/day | Fee: No fee required | Water: Water can be treated or filtered from nearby water sources | Res...","location":""},{"name":"Thomas Knob A.T. Shelter","type":"campsite","lat":36.656396,"lng":-81.5366702,"description":"This is an Appalachain Trail shelter.\n\nType: Camping Area | Hours: Open 24 hours/day | Fee: No fee required | Water: Water can be treated or filtered from nearby water sources | Re...","location":""},{"name":"Pouluos Loop","type":"campsite","lat":34.7491603,"lng":-81.4537421,"description":"CLOSED\n\nType: Campground | Hours: CLOSED | Fee: No fee required | Elevation: feet","location":""},{"name":"West Tower","type":"campsite","lat":30.3247057,"lng":-82.5582035,"description":"WEST TOWER CAMPGROUND\n\nType: Campground | Hours: Open 24 hours/day | Fees: No fees are required for this site | Water: Yes, drinking water is available from a hand pump | Restrooms...","location":""},{"name":"Ymca - Camp Horseshoe","type":"campsite","lat":39.1731787,"lng":-79.6065141,"description":"YMCA - CAMP HORSESHOE (Organization Site)\n\nType: Organization Site | Elevation: feet","location":""},{"name":"Cherry Hill","type":"campsite","lat":34.9422057,"lng":-83.0879352,"description":"Cherry Hill is near the Chattooga Wild and Scenic River and many miles of hiking trails. Site amenities include centrally-located drinking water, cooking grills, tables and lantern...","location":""},{"name":"Jellico Creek 2","type":"campsite","lat":36.603355,"lng":-84.2530903,"description":"Jellico Creek #2 is a small, dispersed campsite with limited development off Jellico Creek Road in McCreary County. The campsite is along Jellico Creek.\n\nType: Camping Area | Hours...","location":""},{"name":"Cherry Mountain Road Camping","type":"campsite","lat":44.304295,"lng":-71.4554588,"description":"Cherry Mountain Roadside Camping includes 10 primitive desigted campsites.  Rules and regulations posted on site.\n\nType: Camping Area | Hours: Open 24 hours/day | Fee: No fee requi...","location":""},{"name":"Table Rock Camping Area","type":"campsite","lat":36.686,"lng":-84.5935744,"description":"Table Rock is a small, dispersed campsite with limited development off Rock Creek Road in McCreary County. The campsite is along Rock Creek, a Kentucky Wild River, and nearby Mushr...","location":""},{"name":"Trapper John Shelter","type":"campsite","lat":43.7832103,"lng":-72.1114544,"description":"¿Built and maintained by the Dartmouth Outing Club, the Trapper John Shelter is located 1. 1 miles from Dorchester Road via Holts Ledge Trail (Appalachian Trail) and spur trail.  T...","location":""},{"name":"Johns Camp Shelter","type":"campsite","lat":38.6610276,"lng":-79.8204251,"description":"JOHNS CAMP SHELTER (Camping Area)\n\nType: Camping Area | Fee: No fee required | Elevation: feet","location":""},{"name":"Cales Knoll Campground","type":"campsite","lat":38.0080325,"lng":-80.0119142,"description":"CALES KNOLL CAMPGROUND (Campground)\n\nType: Campground | Season: Mid May to Labor Day | Hours: 7am to 9pm Memorial Day to Labor Day | Fees: Overnight Use: | Elevation: feet","location":""},{"name":"Hexacuba Shelter","type":"campsite","lat":43.8763443,"lng":-72.0268764,"description":"¿Built and maintained by the Dartmouth Outing Club, this 8-person hexagonal shelter is located on a 0. 2 mile spur path off Kodiak Trail (Appalachian Trail) 1. 6 miles south of the...","location":""},{"name":"A.T. Brown Fork Gap Shelter","type":"campsite","lat":35.3742808,"lng":-83.7339191,"description":"A.T. BROWN FORK GAP SHELTER (Camping Area)\n\nType: Camping Area | Fee: No fee required | Elevation: feet","location":""},{"name":"Sourwood Campground","type":"campsite","lat":35.2938068,"lng":-84.1123042,"description":"SOURWOOD CAMPGROUND (Campground)\n\nType: Campground | Fee: No fee required | Elevation: feet","location":""},{"name":"Rock Rapids Dispersed Campsites","type":"campsite","lat":46.0914087,"lng":-84.9869974,"description":"ROCK RAPIDS DISPERSED CAMPSITES (Camping Area)\n\nType: Camping Area | Fee: No fee required | Elevation: feet","location":""},{"name":"Ore Hill Tentsite","type":"campsite","lat":43.9219489,"lng":-71.9574915,"description":"This tent site offers  two primitive tent pads.  Water is available 250 ft.  south of the shelter site on a side trail.  Privy is also provided.\n\nType: Campground | Hours: Open 24 ...","location":""},{"name":"A.T. Sassafras Gap Shelter","type":"campsite","lat":35.3308668,"lng":-83.6668841,"description":"A.T. SASSAFRAS GAP SHELTER (Camping Area)\n\nType: Camping Area | Fee: No fee required | Elevation: feet","location":""},{"name":"Jellico Creek 1","type":"campsite","lat":36.601373,"lng":-84.2482493,"description":"Jellico Creek #1 is a small, dispersed campsite with limited development off Jellico Creek Road in McCreary County. The campsite is along Jellico Creek.\n\nType: Camping Area | Hours...","location":""},{"name":"Blue Bend Loop Trail Shelter","type":"campsite","lat":37.9067055,"lng":-80.2734112,"description":"BLUE BEND LOOP TRAIL SHELTER (Camping Area)\n\nType: Camping Area | Fee: No fee required | Elevation: feet","location":""},{"name":"West Fork Fs 44 Dispersed","type":"campsite","lat":38.5659026,"lng":-79.8279481,"description":"WEST FORK FS 44 DISPERSED (Camping Area)\n\nType: Camping Area | Fee: No fee required | Elevation: feet","location":""},{"name":"Middle Mountain Road Fs 14 Dispersed","type":"campsite","lat":38.6172046,"lng":-79.7268261,"description":"MIDDLE MOUNTAIN ROAD FS 14 DISPERSED (Camping Area)\n\nType: Camping Area | Fee: No fee required | Elevation: feet","location":""},{"name":"Bingo Brook","type":"campsite","lat":43.8753649,"lng":-72.9137013,"description":"General Forest Camping; Recreational Opportunity Guide\n\nType: Campground | Hours: Open 24 hours/day | Fee: No fee required | Water: Water can be treated or filtered from nearby wat...","location":""},{"name":"Mower Basin Dispersed","type":"campsite","lat":38.6199476,"lng":-79.9350702,"description":"MOWER BASIN DISPERSED (Camping Area)\n\nType: Camping Area | Fee: No fee required | Elevation: feet","location":""},{"name":"Reid Lake Backcountry Campsites","type":"campsite","lat":44.6500085,"lng":-83.6700048,"description":"There are multiple campsites located within the Reid Lake trail system. These hike in sites are available on a first come, first served basis. Trash service is not provided. Please...","location":""},{"name":"Search Bay Dispersed Camping Area","type":"campsite","lat":45.9940607,"lng":-84.5164263,"description":"Search no more for your perfect, off-the-beaten-track campsite and swimming hole.  At Search Bay you will be surrounded by:Aspen grovesCedar swampsMeadows and pondsDeerBald eaglesL...","location":""},{"name":"Moore Lake","type":"campsite","lat":30.3918737,"lng":-84.4073956,"description":"MOORE LAKE (Camping Area)\n\nType: Camping Area | Fee: No fee required | Elevation: feet","location":""},{"name":"Buttercup Backcountry Campsites","type":"campsite","lat":44.6399805,"lng":-83.9177139,"description":"A small, quiet campground, this site is primarily used by river paddlers. Located in stands of mixed hardwoods and pine, campers may be surprised by a wildlife visitor or two while...","location":""},{"name":"Rock Creek 2","type":"campsite","lat":36.630825,"lng":-84.7220645,"description":"Rock Creek #2 is a small, dispersed campsite with limited development off Rock Creek - Bell Farm Road (#137) in McCreary County. The campsite is along Rock Creek, a Kentucky Wild R...","location":""},{"name":"Powell County Dispersed Rec Sites","type":"campsite","lat":37.8166673,"lng":-83.6833342,"description":"POWELL COUNTY DISPERSED REC SITES (Camping Area)\n\nType: Camping Area | Elevation: feet","location":""},{"name":"Rock Creek 1","type":"campsite","lat":36.61216,"lng":-84.7383935,"description":"Rock Creek #1 is a small, dispersed campsite with limited development off Rock Creek - Bell Farm Road (#137) in McCreary County. The campsite is along Rock Creek, a Kentucky Wild R...","location":""},{"name":"Moose Mountain Shelter","type":"campsite","lat":43.7273039,"lng":-72.1493041,"description":"This 'Adirondack' style shelter sits atop the ridge of Moose Mountain off a loop trail from the Moose Mountain Trail (Appalachian Trail). This shelter was built by the Dartmouth Ou...","location":""},{"name":"Fore Lake","type":"campsite","lat":29.2702388,"lng":-81.9184866,"description":"In the stillness of the morning fog, a red-shouldered hawk calls out with an echo across Fore Lake. Bounded by marshes, this lake in a scrub ecosystem is an excellent spot for bird...","location":""},{"name":"Old Virginia Group Horse Camp","type":"campsite","lat":36.7005072,"lng":-81.4903935,"description":"This campground is a primitive horse camp with room for 6 to 15 horse trailers, depending on the size. It offers easy access to the Virginia Highlands Horse Trail with its connecti...","location":""},{"name":"Pope Still Hunt Camp","type":"campsite","lat":30.2240631,"lng":-84.475839,"description":"POPE STILL HUNT CAMP (Camping Area)\n\nType: Camping Area | Fee: No fee required | Elevation: feet","location":""},{"name":"Wild River","type":"campsite","lat":44.305417,"lng":-71.0645907,"description":"WILD RIVER (Campground)\n\nType: Campground | Fees: Overnight Use: | Water: Yes | Restrooms: Yes | Elevation: feet","location":""},{"name":"Pointy Knob Shelter","type":"campsite","lat":39.0390237,"lng":-79.5051891,"description":"POINTY KNOB SHELTER (Camping Area)\n\nType: Camping Area | Fee: No fee required | Elevation: feet","location":""},{"name":"Cathedral Pines Backcountry Group Campsite","type":"campsite","lat":44.6541196,"lng":-84.001916,"description":"The access road is gated to prohibit motorized access. Visitors to this campground are primarily river paddlers. To access the site from the road, visitors will need to walk . 25 m...","location":""},{"name":"Jenkins A.T. Shelter","type":"campsite","lat":37.0863961,"lng":-81.2533368,"description":"This is an Appalachain Trail Shelter\n\nType: Camping Area | Hours: Open year round, 24 hours/day | Fee: No fee required | Water: Water can be treated or filtered from nearby water s...","location":""},{"name":"Brown Mtn Creek A.T. Shelter","type":"campsite","lat":37.7091741,"lng":-79.2683362,"description":"This is an Appalachain Trail shelter.\n\nType: Camping Area | Hours: Open year round, 24 hours/day | Fee: No fee required | Water: Water can be treated or filtered from nearby water ...","location":""},{"name":"Dog Lake Day Use Area","type":"campsite","lat":30.3767258,"lng":-84.3987039,"description":"DOG LAKE DAY USE AREA (Camping Area)\n\nType: Camping Area | Fee: No fee required | Elevation: feet","location":""},{"name":"Curtis Creek Roadside Campsites","type":"campsite","lat":35.6549588,"lng":-82.1754825,"description":"CURTIS CREEK ROADSIDE CAMPSITES (Campground)\n\nType: Campground | Fee: No fee required | Elevation: feet","location":""},{"name":"Gale River Loop","type":"campsite","lat":44.225765,"lng":-71.6235159,"description":"Gale River Loop Dispersed camping includes 13 primitive car-camping campsites.   Camping is allowed at desigted sites only at this  pack-in/pack-out facility .\n\nType: Camping Area ...","location":""},{"name":"Pine Swamp A.T. Shelter","type":"campsite","lat":37.4222296,"lng":-80.6094477,"description":"This is an Appalachain Trail Shelter\n\nType: Camping Area | Hours: Open year round, 24 hours/day | Fee: No fee required | Water: Water can be treated or filtered from nearby water s...","location":""},{"name":"Brevoort Dam Dispersed Camping Area","type":"campsite","lat":45.9872197,"lng":-84.9359354,"description":"This is a popular dispersed camping area located directly along the North Country National Scenic Hiking Trail, adjacent to the Brevoort Lake dam.  Walk in only, picnic table and f...","location":""},{"name":"Upper Cove Creek Roadside Campsites","type":"campsite","lat":35.3103577,"lng":-82.8121393,"description":"UPPER COVE CREEK ROADSIDE CAMPSITES (Camping Area)\n\nType: Camping Area | Fee: No fee required | Elevation: feet","location":""},{"name":"Churchill Scott Shelter","type":"campsite","lat":43.6450289,"lng":-72.8534413,"description":"CHURCHILL SCOTT SHELTER (Campground)\n\nType: Campground | Hours: Open 24 hours/day | Fee: No fee required | Water: Water can be treated or filtered from nearby water sources | Eleva...","location":""},{"name":"Jellico Creek 3","type":"campsite","lat":36.604627,"lng":-84.2578583,"description":"Jellico Creek #3 is a small, dispersed campsite with limited development off Jellico Creek Road in McCreary County. The campsite is along Jellico Creek.\n\nType: Camping Area | Hours...","location":""},{"name":"Bear Run Campsites","type":"campsite","lat":38.1936115,"lng":-80.3679673,"description":"BEAR RUN CAMPSITES (Camping Area)\n\nType: Camping Area | Fee: No fee required | Elevation: feet","location":""},{"name":"Sunburst Campground","type":"campsite","lat":35.3750573,"lng":-82.9420579,"description":"SUNBURST CAMPGROUND (Campground)\n\nType: Campground | Elevation: feet","location":""},{"name":"Shanty Pond Recreation Area","type":"campsite","lat":29.3325722,"lng":-81.7314032,"description":"SHANTY POND RECREATION AREA\n\nType: Campground | Hours: Temporarily Closed | Fee: No fee required | Water: No water is available | Restrooms: Vault toilet(s)","location":""},{"name":"Curtis Creek Campground","type":"campsite","lat":35.6549589,"lng":-82.1754827,"description":"CURTIS CREEK CAMPGROUND (Campground)\n\nType: Campground | Elevation: feet","location":""},{"name":"Jigger Johnson","type":"campsite","lat":43.997888,"lng":-71.3339318,"description":"JIGGER JOHNSON (Campground)\n\nType: Campground | Fees: Overnight Use: | Water: Yes, drinking water available from faucets | Restrooms: Flush Toilet(s) | Elevation: feet","location":""},{"name":"Rock Creek Dispersed Area","type":"campsite","lat":34.7213955,"lng":-84.1330597,"description":"ROCK CREEK DISPERSED AREA (Camping Area)\n\nType: Camping Area | Fee: No fee required | Elevation: feet","location":""},{"name":"Yellow Gap Roadside Campsites","type":"campsite","lat":35.4038655,"lng":-82.6708244,"description":"YELLOW GAP ROADSIDE CAMPSITES (Campground)\n\nType: Campground | Fee: No fee required | Elevation: feet","location":""},{"name":"Wash Creek Roadside Campsites","type":"campsite","lat":35.4379738,"lng":-82.6609977,"description":"WASH CREEK ROADSIDE CAMPSITES (Campground)\n\nType: Campground | Fee: No fee required | Elevation: feet","location":""},{"name":"Rock Creek #3","type":"campsite","lat":36.648617,"lng":-84.7072695,"description":"Rock Creek #3 is a small, dispersed campsite with limited development off Rock Creek - Bell Farm Road (#137) in McCreary County. The campsite is along Rock Creek, a Kentucky Wild R...","location":""},{"name":"Turkey Run Primitive Camp","type":"campsite","lat":30.2805613,"lng":-82.4791702,"description":"TURKEY RUN TRAILHEAD  FNST Camp Shelter with Kiosk\n\nType: Campground | Hours: Open 24 hours/day | Fee: No fee required | Water: No drinking water is available | Restrooms: No restr...","location":""},{"name":"Jellico Creek 4","type":"campsite","lat":36.603865,"lng":-84.2591013,"description":"Jellico Creek #4 is a small, dispersed campsite with limited development off Jellico Creek Road in McCreary County. The campsite is along Jellico Creek.\n\nType: Camping Area | Hours...","location":""},{"name":"Velvet Rocks Shelter","type":"campsite","lat":43.7026718,"lng":-72.2647466,"description":"¿The Velvet Rocks Shelter is located on the Velvet Rocks Trail 1. 2 miles from the official western terminus of the trail near NH Rte 120 and Chase Field House in Hanover.  A privy...","location":""},{"name":"Wildell Shelter","type":"campsite","lat":38.7445576,"lng":-79.7760041,"description":"WILDELL SHELTER (Camping Area)\n\nType: Camping Area | Fee: No fee required | Elevation: feet","location":""},{"name":"North Bend Campsites","type":"campsite","lat":38.2309105,"lng":-80.4415923,"description":"NORTH BEND CAMPSITES (Camping Area)\n\nType: Camping Area | Fee: No fee required | Elevation: feet","location":""},{"name":"Meadow Springs Backcountry Campsites","type":"campsite","lat":44.6576255,"lng":-84.07726,"description":"Located on the edge of a red pine plantation, visitors to this site may see many varieties of wildlife in addition to their view of the Au Sable River. This camping area is a short...","location":""},{"name":"52 Landing","type":"campsite","lat":29.0472055,"lng":-81.5080032,"description":"52 LANDING (Camping Area)\n\nType: Camping Area | Fee: No fee required | Elevation: feet","location":""},{"name":"Mikes Run Shelter","type":"campsite","lat":39.1871777,"lng":-79.6186581,"description":"MIKES RUN SHELTER (Camping Area)\n\nType: Camping Area | Fee: No fee required | Elevation: feet","location":""},{"name":"Indian Creek Camping Area","type":"campsite","lat":37.8606173,"lng":-83.6742942,"description":"Indian Creek Camping Area is located off Road 23 in the Red River Gorge and provides dispersed camping and creek access for fishing and wading. There are several nearby climbing ar...","location":""},{"name":"Wash Creek Horse Camp","type":"campsite","lat":35.4331419,"lng":-82.6594514,"description":"WASH CREEK HORSE CAMP (Horse Camp)\n\nType: Horse Camp | Elevation: feet","location":""},{"name":"Sandy Flats Iron Mountain Camping Area","type":"campsite","lat":36.663896,"lng":-81.7055591,"description":"The shelter was destroyed by a hurricane. the privy still exists, as does the fire pit.\n\nType: Camping Area | Hours: Open 24 hours/day | Fee: No fee required | Water: Water can be ...","location":""},{"name":"Hendersonville Reservoir Rd Roadside Campsites","type":"campsite","lat":35.4239735,"lng":-82.6558439,"description":"HENDERSONVILLE RESERVOIR RD ROADSIDE CAMPSITES (Campground)\n\nType: Campground | Fee: No fee required | Elevation: feet","location":""},{"name":"Bromley Shelter","type":"campsite","lat":43.2226477,"lng":-72.9511957,"description":"overnight shelter located on the Appalachian National Scenic Trail and coincident Long Trail\n\nType: Campground | Hours: Open 24 hours/day | Fee: No fee required | Water: Water can ...","location":""},{"name":"Brown Mountain Cua Roadside Campsites","type":"campsite","lat":35.892647,"lng":-81.7403335,"description":"BROWN MOUNTAIN CUA ROADSIDE CAMPSITES (Campground)\n\nType: Campground | Fee: No fee required | Elevation: feet","location":""},{"name":"Government Island","type":"campsite","lat":45.9693427,"lng":-84.3101842,"description":"Government Island is the only public land within the Les Cheneaux chain of islands. it was once home to a Coast Guard construction support site. The Forest Service provides establi...","location":""},{"name":"Menifee County Dispersed Rec. Sites","type":"campsite","lat":37.8597883,"lng":-83.6443372,"description":"MENIFEE COUNTY DISPERSED REC. SITES (Camping Area)\n\nType: Camping Area | Elevation: feet","location":""},{"name":"Pine Creek Hunt Camp","type":"campsite","lat":30.245359,"lng":-84.6975137,"description":"PINE CREEK HUNT CAMP (Camping Area)\n\nType: Camping Area | Fee: No fee required | Elevation: feet","location":""},{"name":"Au Sable River Backcountry Campsites","type":"campsite","lat":44.4344529,"lng":-83.622227,"description":"Ausable River Primitive Camping is not a physical campground located at one location.  A series of 102 individually designated single-family campsites are located on a 55-mile stre...","location":""},{"name":"Imp Shelter","type":"campsite","lat":44.329096,"lng":-71.1501547,"description":"IMP SHELTER (Campground)\n\nType: Campground | Fee: No fee required | Elevation: feet","location":""},{"name":"Railroad Grade Shelter","type":"campsite","lat":39.0709467,"lng":-79.5344041,"description":"RAILROAD GRADE SHELTER (Camping Area)\n\nType: Camping Area | Fee: No fee required | Elevation: feet","location":""},{"name":"Oronoco","type":"campsite","lat":37.7475075,"lng":-79.2647251,"description":"Located near Vesuvius, VA, this spot is a favorite among campers looking for a primitive, no-frills experience.\n\nType: Campground | Hours: Open year round, Quiet hours are 10:00 p....","location":""},{"name":"Pine River Campground","type":"campsite","lat":46.2278057,"lng":-84.8754834,"description":"PINE RIVER CAMPGROUND (Camping Area)\n\nType: Camping Area | Fee: No fee required | Elevation: feet","location":""},{"name":"Little Stoney Creek Camp","type":"campsite","lat":36.3142071,"lng":-82.0731037,"description":"LITTLE STONEY CREEK CAMP (Camping Area)\n\nType: Camping Area | Fee: No fee required | Elevation: feet","location":""},{"name":"Hurricane Creek Horse & Primitive Camp","type":"campsite","lat":35.0551392,"lng":-83.5100386,"description":"HURRICANE CREEK HORSE & PRIMITIVE CAMP (Horse Camp)\n\nType: Horse Camp | Fees: Overnight Use: | Elevation: feet","location":""},{"name":"Desoto Falls Recreation Area","type":"campsite","lat":34.7055622,"lng":-83.9177819,"description":"DESOTO FALLS REC. AREA (Campground)\n\nType: Campground | Fees: Overnight Use: | Elevation: 2,000 feet","location":""},{"name":"Lower Glady Dispersed Camp Site","type":"campsite","lat":38.9781857,"lng":-79.5904621,"description":"LOWER GLADY DISPERSED CAMP SITE (Camping Area)\n\nType: Camping Area | Fee: No fee required | Elevation: feet","location":""},{"name":"Hoist Lakes Backcountry Campsites","type":"campsite","lat":44.6428085,"lng":-83.7758479,"description":"There are multiple campsites located within the Hoist Lakes trail system. These hike in sites are available on a first come, first served basis. Trash service is not provided. Plea...","location":""},{"name":"Sarver Hollow A.T. Shelter","type":"campsite","lat":37.3547813,"lng":-80.3374592,"description":"This is an Appalachain Trail shelter.\n\nType: Camping Area | Hours: Open 24 hours/day | Fee: No fee required | Water: Water can be treated or filtered from nearby water sources | Re...","location":""},{"name":"River Dune Backcounty Group Campsite","type":"campsite","lat":44.6491196,"lng":-84.0949161,"description":"Located between the Au Sable River Scenic Overlook and Au Sable Loop Campground, this small site is a short . 5 mile walk from the gate. Set back from the road and camping area, ca...","location":""},{"name":"South Tower Hunt Camp","type":"campsite","lat":28.9996721,"lng":-81.7779866,"description":"SOUTH TOWER HUNT CAMP (Camping Area)\n\nType: Camping Area | Fee: No fee required | Elevation: feet","location":""},{"name":"Ocala Ohv Center","type":"campsite","lat":29.3988722,"lng":-81.8060866,"description":"OCALA SEED ORCHARD (Organization Site)\n\nType: Organization Site | Hours: Closed to Public | Fee: No fee required | Water: Yes, drinking water is available from faucets | Restrooms:...","location":""},{"name":"East Morris Mtn. Hunt Camp","type":"campsite","lat":35.4395461,"lng":-79.9586829,"description":"EAST MORRIS MTN. HUNT CAMP (Camping Area)\n\nType: Camping Area | Fee: No fee required | Elevation: feet","location":""},{"name":"Bear Island Backcountry Campsites","type":"campsite","lat":44.6340185,"lng":-83.8900149,"description":"A small, quiet campground, this site is primarily used by river paddlers. Located in stands of mixed hardwoods and pine, campers may be surprised by a wildlife visitor or two while...","location":""},{"name":"Avery Creek Roadside Campsites","type":"campsite","lat":35.2965346,"lng":-82.7394482,"description":"AVERY CREEK ROADSIDE CAMPSITES (Camping Area)\n\nType: Camping Area | Fee: No fee required | Elevation: feet","location":""},{"name":"Nauman Tentsite","type":"campsite","lat":44.2193102,"lng":-71.3689589,"description":"A primitive backcountry tent site located near Mizpah Springs Hut\n\nType: Campground | Hours: Open 24 hours/day | Fee: No fee required | Water: No drinking water is available | Rest...","location":""},{"name":"Honey Hill","type":"campsite","lat":33.1741905,"lng":-79.561851,"description":"This primitive camping facility is located between McClellanville and Honey Hill. A short camp loop swings through an upland pine/oak forest and encircles a fire lookout tower. The...","location":""},{"name":"Otter Hunt Camp","type":"campsite","lat":30.3076608,"lng":-84.6151419,"description":"OTTER HUNT CAMP (Camping Area)\n\nType: Camping Area | Fee: No fee required | Elevation: feet","location":""},{"name":"River Road Horse Trail Camp","type":"campsite","lat":44.4429045,"lng":-83.5391218,"description":"The campground for the Shore-to-Shore Trail is adjacent to River Road.  There are picnic tables scattered throughout the site.\n\nType: Horse Camp | Hours: Open 24 hours a day, 7 day...","location":""},{"name":"Elbow Pond","type":"campsite","lat":43.9936,"lng":-71.7495891,"description":"The Elbow Pond Day Use area provides a rustic setting for picnicking and canoeing.\n\nType: Camping Area | Fee: No fee required | Water: No | Restrooms: No","location":""},{"name":"Davenport Landing","type":"campsite","lat":29.4722056,"lng":-81.7735033,"description":"Deep in the floodplain forest along the Ocklawaha River, Davenport Landing is a former steamboat stop along this twisting, winding waterway.  Three primitive campsites provide a st...","location":""},{"name":"Lake Sherwood Volunteer Village","type":"campsite","lat":38.0082225,"lng":-80.0118802,"description":"LAKE SHERWOOD VOLUNTEER VILLAGE (Campground)\n\nType: Campground | Fee: No fee required | Elevation: feet","location":""},{"name":"Wolfe County Dispersed Rec. Sites","type":"campsite","lat":37.7833373,"lng":-83.5833342,"description":"WOLFE COUNTY DISPERSED REC. SITES (Camping Area)\n\nType: Camping Area | Elevation: feet","location":""},{"name":"Haystack Road","type":"campsite","lat":44.245294,"lng":-71.5665049,"description":"HAYSTACK ROAD (Camping Area)\n\nType: Camping Area | Fee: No fee required | Elevation: feet","location":""},{"name":"Wapiti A.T. Shelter","type":"campsite","lat":37.2238962,"lng":-80.8252811,"description":"This is an Appalachain Trail Shelter\n\nType: Camping Area | Hours: Open year round, 24 hours/day | Fee: No fee required | Water: Water can be treated or filtered from nearby water s...","location":""},{"name":"Cliff Lake Hunt Camp","type":"campsite","lat":30.1395275,"lng":-84.9325499,"description":"CLIFF LAKE HUNT CAMP (Camping Area)\n\nType: Camping Area | Fee: No fee required | Elevation: feet","location":""},{"name":"Trace Branch Camping Area","type":"campsite","lat":36.67362,"lng":-84.5963054,"description":"Trace Branch is a small, dispersed campsite with limited development off Rock Creek Road in McCreary County. The campsite is along Rock Creek, a Kentucky Wild River.\n\nType: Camping...","location":""},{"name":"Johns Hollow A.T. Shelter","type":"campsite","lat":37.6127852,"lng":-79.3919474,"description":"This is an Appalachain Trail shelter.\n\nType: Camping Area | Hours: Open 24 hours/day | Fee: No fee required | Water: Water can be treated or filtered from nearby water sources | Re...","location":""},{"name":"Little Long Mountain Shelter","type":"campsite","lat":35.5007519,"lng":-79.952922,"description":"LITTLE LONG MOUNTAIN SHELTER (Camping Area)\n\nType: Camping Area | Fee: No fee required | Elevation: feet","location":""},{"name":"Young Branch Horse Camp","type":"campsite","lat":35.4834068,"lng":-84.1232042,"description":"Young Branch Campground is located on Citico Creek. The campground offers 25 horse stalls as well as a corral that may accommodate up to 10 horses (if they get along with each othe...","location":""},{"name":"Magnolia Hunt Camp","type":"campsite","lat":30.0739097,"lng":-84.9008809,"description":"MAGNOLIA HUNT CAMP (Camping Area)\n\nType: Camping Area | Fee: No fee required | Elevation: feet","location":""},{"name":"Big Bass","type":"campsite","lat":28.9851554,"lng":-81.7841032,"description":"Spend your next short- or long-term camping trip at Big Bass. With the occasional black bear sighting, this the perfect location to escape the hustle of the city and get back to na...","location":""},{"name":"Blue Bend Campground","type":"campsite","lat":37.9218355,"lng":-80.2684952,"description":"BLUE BEND CAMPGROUND (Campground)\n\nType: Campground | Fees: Overnight Use: | Restrooms: Flush and Vault Toilets | Elevation: feet","location":""},{"name":"Kinsman Pond","type":"campsite","lat":44.1371387,"lng":-71.7324308,"description":"Kinsman Pond Shelter lies on the northern shore of Kinsman Pond at the elevation of 3,750 ft. at the junctions of Kinsman Pond, Kinsman Ridge, and Fishing' Jiminy(Appalachian Trail...","location":""},{"name":"De La Howe","type":"campsite","lat":33.9500935,"lng":-82.4270196,"description":"DE LA HOWE (Organization Site)\n\nType: Organization Site | Fee: No fee required | Elevation: feet","location":""},{"name":"Fell","type":"campsite","lat":34.0945372,"lng":-82.2874628,"description":"FELL (Horse Camp)\n\nType: Horse Camp | Elevation: feet","location":""},{"name":"Franconia Brook Campsites","type":"campsite","lat":44.0999238,"lng":-71.5716853,"description":"Franconia Brook Tent site is located on the Eastside trail, on the East side of the Pemigewasset River, 3 miles in from the Lincoln Woods trailhead. There are approximately 20 tent...","location":""},{"name":"Dockery Lake Recreation Area","type":"campsite","lat":34.6741733,"lng":-83.9752819,"description":"Overlooking Dockery Lake and nestled deep within the mountains 12 miles north of Dahlonega, GA.  Dockery Lake Recreation Area offers camping, picnicking and fishing for all ages. T...","location":""},{"name":"Nimblewill Dispersed Area","type":"campsite","lat":34.5838955,"lng":-84.1844486,"description":"NIMBLEWILL DISPERSED AREA (Camping Area)\n\nType: Camping Area | Fee: No fee required | Elevation: feet","location":""},{"name":"Dry River Shelter # 3","type":"campsite","lat":44.228732,"lng":-71.3254838,"description":"DRY RIVER SHELTER # 3 (Campground)\n\nType: Campground | Fee: No fee required | Elevation: feet","location":""},{"name":"Round Island Camping Area","type":"campsite","lat":45.8352847,"lng":-84.6130513,"description":"ROUND ISLAND CAMPING AREA (Camping Area)\n\nType: Camping Area | Fee: No fee required | Elevation: feet","location":""},{"name":"Dolly Copp","type":"campsite","lat":44.33259,"lng":-71.2192848,"description":"Located 6 miles south of Gorham, New Hampshire at the base of New England's tallest peak, the historic Dolly Copp Campground is a large facility that accommodates a range of camper...","location":""},{"name":"Tumbling Rock Shelter","type":"campsite","lat":38.2710935,"lng":-80.3449173,"description":"TUMBLING ROCK SHELTER (Camping Area)\n\nType: Camping Area | Fee: No fee required | Elevation: feet","location":""},{"name":"Twin Lakes Campground","type":"campsite","lat":41.6141749,"lng":-78.7555586,"description":"Twin Lakes was once the site of factory buildings, stores and row houses owned by the McKean Chemical Company which made wood alcohol. A company splash dam, used to augment water l...","location":""},{"name":"Blue Valley Camp","type":"campsite","lat":35.0113617,"lng":-83.2301973,"description":"BLUE VALLEY CAMP (Campground)\n\nType: Campground | Fee: No fee required | Elevation: feet","location":""},{"name":"Perkins Notch Tent Site","type":"campsite","lat":44.2414457,"lng":-71.1453108,"description":"Located on the southeast side of Wild River near No-Ketchum Pond. 3 tent pads. No toilet facilities.\n\nType: Camping Area | Hours: Open 24 hours/day | Fee: No fee required | Water: ...","location":""},{"name":"Boones Run Massanutten Shelter","type":"campsite","lat":38.4603176,"lng":-78.7079328,"description":"This is a primitive Trail Shelter\n\nType: Camping Area | Hours: Open year round, 24 hours/day | Fee: No fee required | Water: Water can be treated or filtered from nearby water sour...","location":""},{"name":"A.T. Bald Mountain Shelter","type":"campsite","lat":36.0001316,"lng":-82.4781362,"description":"A.T. BALD MOUNTAIN SHELTER (Camping Area)\n\nType: Camping Area | Fee: No fee required | Elevation: feet","location":""},{"name":"Lake Shore Group Camp","type":"campsite","lat":29.2740222,"lng":-81.9176533,"description":"Lake Shore Group Campground sits on the north shore of Fore Lake in Ocala National Forest. It is a favorite for scout, church and civic groups, as well as large families and reunio...","location":""},{"name":"Andrew'S Cove","type":"campsite","lat":34.7777845,"lng":-83.7366707,"description":"ANDREW'S COVE (Campground)\n\nType: Campground | Fees: Overnight Use: | Elevation: 2,200 feet","location":""},{"name":"Eliza Brook Shelter","type":"campsite","lat":44.1010027,"lng":-71.742366,"description":"Eliza Brook Shelter and 4 hardened tent pads are located near Eliza Brook off Kinsman Ridge Trail (Appalachian Trail) 2.5 miles south of the South Kinsman summit on the mountain's ...","location":""},{"name":"Forks Shelter","type":"campsite","lat":38.3676126,"lng":-80.2017352,"description":"FORKS SHELTER (Camping Area)\n\nType: Camping Area | Fee: No fee required | Elevation: feet","location":""},{"name":"Buckhall Recreation Area","type":"campsite","lat":33.0385272,"lng":-79.5613699,"description":"Buck Hall Recreation Area offers a premier location to enjoy the outdoors. It is situated along the Intracoastal Waterway and provides great access to Cape Romain National Wildlife...","location":""},{"name":"Thunder Hill A.T. Shelter","type":"campsite","lat":37.526794,"lng":-79.504688,"description":"This is an Appalachain Trail shelter.\n\nType: Camping Area | Hours: Open 24 hours/day | Fee: No fee required | Water: Water can be treated or filtered from nearby water sources | Re...","location":""},{"name":"Toccoa River -Sandy Bottoms Campground","type":"campsite","lat":34.7894511,"lng":-84.2419487,"description":"SANDY BOTTOMS - TOCCOA RIVER CAMPGROUND (Campground)\n\nType: Campground | Fees: Overnight Use: | Elevation: feet","location":""},{"name":"Horse Creek Recreation Area","type":"campsite","lat":36.108307,"lng":-82.6568038,"description":"Horse Creek Recreation Area is located eight miles from Greeneville, off TN 107 north. This recreation area is nestled into a hardwood cove beside its namesake, Horse Creek.\nThere ...","location":""},{"name":"Old Forge Campground","type":"campsite","lat":36.091107,"lng":-82.6819038,"description":"Are you looking for a primitive tent camping experience? Come stay at this small campground located along the banks of Jennings Creek. Large walk-in tent sites are screened by nati...","location":""},{"name":"Bear Creek Hunt Camp","type":"campsite","lat":35.4210278,"lng":-83.9495832,"description":"The Bear Creek Hunt Camp is a three-sided shelter available for free public use.  There is a picnic table and fire ring located onsite.  There is a fourteen day stay limit within a...","location":""},{"name":"Meadow Creek Loop Campground","type":"campsite","lat":38.0139825,"lng":-80.0038912,"description":"MEADOW CREEK LOOP CAMPGROUND (Campground)\n\nType: Campground | Elevation: feet","location":""},{"name":"Jacobs Creek Campground","type":"campsite","lat":36.5669071,"lng":-82.0108037,"description":"Jacobs Creek Recreation Area is located on a peninsula on the eastern shore of South Holston Lake in Sullivan County.\nThe campground includes 27 single-unit campsites, a trailer du...","location":""},{"name":"A.T. Plum Orchard Shelter","type":"campsite","lat":34.9458367,"lng":-83.588304,"description":"Wooden Shelter approximately 4 miles from parking at Dick's Creek Gap\n\nType: Camping Area | Hours: Open 24 hours/day | Fee: No fee required | Water: No water is available | Restroo...","location":""},{"name":"Paul Gerhard Tuscarora Shelter","type":"campsite","lat":39.04223,"lng":-78.5588917,"description":"This is a primitive Trail Shelter\n\nType: Camping Area | Hours: Open year round, 24 hours/day | Fee: No fee required | Water: Water can be treated or filtered from nearby water sour...","location":""},{"name":"Conasauga River Campground","type":"campsite","lat":34.9899067,"lng":-84.6356043,"description":"CONASAUGA RIVER CAMPGROUND (Campground)\n\nType: Campground | Fee: No fee required | Elevation: feet","location":""},{"name":"Montgomery Creek Dispersed Area","type":"campsite","lat":34.6288955,"lng":-84.1341708,"description":"MONTGOMERY CREEK (Camping Area)\n\nType: Camping Area | Fee: No fee required | Elevation: feet","location":""},{"name":"Crocker Pond","type":"campsite","lat":44.3103198,"lng":-70.8234726,"description":"CROCKER POND (Campground)\n\nType: Campground | Fees: Overnight Use: | Water: Yes, drinking water is available from a hand pump | Restrooms: Vault Toilet(s) | Elevation: feet","location":""},{"name":"A.T. Wayah Bald Shelter","type":"campsite","lat":35.1894568,"lng":-83.564404,"description":"A.T. WAYAH BALD SHELTER (Camping Area)\n\nType: Camping Area | Fee: No fee required | Elevation: feet","location":""},{"name":"Bolar Mountain Volunteer Village","type":"campsite","lat":37.9841742,"lng":-79.9633365,"description":"This is a site for Volunteers on the James River and Warm Springs District to base operations out of.  The sites have water and electric and there is place to do laundry and shower...","location":""},{"name":"Lake Santeetlah Campsites","type":"campsite","lat":35.3678228,"lng":-83.8497871,"description":"Dispersed campsites located in the Santeetlah Lake watershed.  Each campsite has a fire ring, picnic table and lantern post.  There is a fourteen day stay limit within a 30 day per...","location":""},{"name":"Chatfield A.T. Shelter","type":"campsite","lat":36.8517832,"lng":-81.3655735,"description":"This is an AT Trail Shelter in Smyth County Virginia\n\nType: Camping Area | Hours: Open 24 hours/day | Fee: No fee required | Water: Water can be treated or filtered from nearby wat...","location":""},{"name":"Handsome Lake Boat To","type":"campsite","lat":41.9225083,"lng":-78.9308364,"description":"This small rustic campground is located on the east bank of the Allegheny Reservoir just north of Sugar Bay. It is accessible by boat (Allegheny Reservoir) or hiking trail (North C...","location":""},{"name":"Old Orchard A.T. Shelter","type":"campsite","lat":36.6830627,"lng":-81.5116702,"description":"This is an Appalachain Trail shelter in the Mouth of Wilson.\n\nType: Camping Area | Hours: Open 24 hours/day | Fee: No fee required | Water: Water can be treated or filtered from ne...","location":""},{"name":"Wolf Ford Horse Camp","type":"campsite","lat":35.3771999,"lng":-82.7386934,"description":"WOLF FORD HORSE CAMP (Horse Camp)\n\nType: Horse Camp | Elevation: feet","location":""},{"name":"Nct-Hunter Station Shelter","type":"campsite","lat":41.6499582,"lng":-79.1022201,"description":"NCT-HUNTER STATION SHELTER (Campground)\n\nType: Campground | Fee: No fee required | Elevation: feet","location":""},{"name":"Brandywine Campground","type":"campsite","lat":38.5952854,"lng":-79.1997252,"description":"Located on the 10-acre Brandywine Lake, this wooded recreation area affords access to multiple hiking and mountain biking trails, a swimming beach, and a 35-site campground with an...","location":""},{"name":"Mortimer Campground","type":"campsite","lat":35.9910849,"lng":-81.761279,"description":"MORTIMER CAMPGROUND (Campground)\n\nType: Campground | Elevation: feet","location":""},{"name":"Davidson River Campground","type":"campsite","lat":35.2828641,"lng":-82.7290414,"description":"DAVIDSON RIVER CG (Campground)\n\nType: Campground | Fees: Overnight Use: | Elevation: feet","location":""},{"name":"Wildcat Campground #2","type":"campsite","lat":34.8322289,"lng":-83.6261152,"description":"WILDCAT CAMPGROUND #2 (Campground)\n\nType: Campground | Fees: Overnight Use: | Elevation: feet","location":""},{"name":"A.T. Clyde Smith Shelter","type":"campsite","lat":36.1485402,"lng":-82.1612813,"description":"A.T. CLYDE SMITH SHELTER (Camping Area)\n\nType: Camping Area | Fee: No fee required | Elevation: feet","location":""},{"name":"Peru Peak Shelter","type":"campsite","lat":43.3012488,"lng":-72.952346,"description":"overnight shelter located on the Appalachian National Scenic Trail and coincident Long Trail\n\nType: Campground | Hours: Open 24 hours/day | Fee: No fee required | Water: Water can ...","location":""},{"name":"Punchbowl A.T. Shelter","type":"campsite","lat":37.6775075,"lng":-79.338614,"description":"This is an Appalachain Trail shelter.\n\nType: Camping Area | Hours: Open 24 hours/day | Fee: No fee required | Water: Water can be treated or filtered from nearby water sources | Re...","location":""},{"name":"Brevoort Lake - Cg","type":"campsite","lat":46.0075587,"lng":-84.9721094,"description":"This is a large campground offers visitors a serene environment on the sandy shores of Brevoort Lake, which spans 4,233 acres. Besides camping and picnicking Brevoort Lake is an id...","location":""},{"name":"The Landing","type":"campsite","lat":30.2171057,"lng":-82.4235035,"description":"THE LANDING (Group Campground) Advance reservations required/ 6 month advance booking.\n\nType: Group Campground | Hours: Open 24 hours/day | Fees: Overnight Use: | Water: Yes, drink...","location":""},{"name":"Bell Farm Horse Camp","type":"campsite","lat":36.6684842,"lng":-84.6682365,"description":"Bell Farm Horse Camp is located off Road 1363 in McCreary County and is a popular place for wagon train riders who come to \"rest a spell.\"  In the early 1900s, this area was a logg...","location":""},{"name":"Padena Dispersed Area","type":"campsite","lat":34.8592467,"lng":-84.2319042,"description":"PADENA DISPERSED AREA (Camping Area)\n\nType: Camping Area | Fee: No fee required | Elevation: feet","location":""},{"name":"Lake Rabun Beach Recreation Area Campground","type":"campsite","lat":34.7575067,"lng":-83.4766707,"description":"Cradled in the hills of the North Georgia Mountains overlooking beautiful Lake Rabun, this developed recreation area offers camping and hiking. Across the road, the lake offers ple...","location":""},{"name":"Wintturi Shelter","type":"campsite","lat":43.6621889,"lng":-72.6225712,"description":"WINTTURI SHELTER\n\nType: Campground | Hours: Open 24 hours/day | Fee: No fee required | Water: Water can be treated or filtered from nearby water sources","location":""},{"name":"Bee Rock Campground","type":"campsite","lat":37.0279161,"lng":-84.3179204,"description":"Bee Rock Campground is located off KY 192 within the Bee Rock Recreation Area along the banks of the Rockcastle River and features 25 wooded, first-come, first-served campsites wit...","location":""},{"name":"Davis Branch Cg","type":"campsite","lat":35.2789068,"lng":-84.0964042,"description":"Looking to camp where you can wake at the crack of dawn and start fishing? This is one of several small campgrounds on Tellico River Road (FS Road 210). This campground offers 6 ca...","location":""},{"name":"Tracy Ridge Rec Area","type":"campsite","lat":41.9430639,"lng":-78.8758364,"description":"This campground sits on a ridge top three miles east of the Allegheny Reservoir just minutes south of the PA/NY state border. This 45-site campground provides spacious, tree-shaded...","location":""},{"name":"Deep Water Camp","type":"campsite","lat":35.4033599,"lng":-80.0864453,"description":"DEEP WATER CAMP (Camping Area)\n\nType: Camping Area | Fee: No fee required | Elevation: feet","location":""},{"name":"Burr Oak Cove Campground","type":"campsite","lat":39.5511557,"lng":-82.0577419,"description":"Burr Oak Cove Campground is a small, densely wooded campground on the northwest tip of Burr Oak Reservoir in Athens County. The campground has 19 camping units, including walk-in s...","location":""},{"name":"Stony Brook Shelter","type":"campsite","lat":43.6917989,"lng":-72.7305912,"description":"STONY BROOK SHELTER\n\nType: Campground | Hours: Open 24 hours/day | Fee: No fee required | Water: Water can be treated or filtered from nearby water sources","location":""},{"name":"Round Lake Recreation Area Campground","type":"campsite","lat":44.3408418,"lng":-83.6638937,"description":"Round Lake Campground is a wooded camping area offering a wide variety of recreation opportunities. Most of the ownership around the 91-acre lake is private. This access provides t...","location":""},{"name":"Summit Lake Campground","type":"campsite","lat":38.2477325,"lng":-80.4367683,"description":"SUMMIT LAKE CAMPGROUND (Campground)\n\nType: Campground | Fees: Overnight Use: | Restrooms: Vault Toilets are available","location":""},{"name":"Ocean Pond Campground","type":"campsite","lat":30.2394057,"lng":-82.4327035,"description":"OCEAN POND CAMPGROUND (Campground) 19 electric 26 water and 22 primitive\n\nType: Campground | Hours: Open 24 Hours/7 days | Fees: Overnight Use: | Water: Yes, drinking water is avai...","location":""},{"name":"Kiasutha Rec Area","type":"campsite","lat":41.785286,"lng":-78.903892,"description":"The campground sits on a large tributary of the Allegheny Reservoir, offering countless water activities. Visitors enjoy a grassy beach for swimming and relaxing, a boat ramp and d...","location":""},{"name":"Cornelius Creek A.T. Shelter","type":"campsite","lat":37.4938963,"lng":-79.5472252,"description":"This is an Appalachain Trail shelter.\n\nType: Camping Area | Hours: Open year round, 24 hours/day | Fee: No fee required | Water: Water can be treated or filtered from nearby water ...","location":""},{"name":"Rice Fields A.T. Shelter","type":"campsite","lat":37.3727851,"lng":-80.76417,"description":"This is an Appalachain Trail Shelter\n\nType: Camping Area | Hours: Open year round, 24 hours/day | Fee: No fee required | Water: Water can be treated or filtered from nearby water s...","location":""},{"name":"A.T. Vandeventer Shelter","type":"campsite","lat":36.3670741,"lng":-82.0587689,"description":"A.T. VANDEVENTER SHELTER (Camping Area)\n\nType: Camping Area | Fee: No fee required | Elevation: feet","location":""},{"name":"Dry Fork Camping Area","type":"campsite","lat":39.0186047,"lng":-79.5571741,"description":"DRY FORK CAMPING AREA (Camping Area)\n\nType: Camping Area | Fee: No fee required | Elevation: feet","location":""},{"name":"Little Fort","type":"campsite","lat":38.8669522,"lng":-78.4444472,"description":"Little Fort is a minimally developed recreation area located near a meadow that was once a rest stop for a stagecoach line. Enjoy the thrill of riding the largest OHV system in the...","location":""},{"name":"Bear Creek Dispersed Camping Area","type":"campsite","lat":34.8147289,"lng":-84.5611154,"description":"BEAR CREEK DISPERSED CAMPING AREA (Camping Area)\n\nType: Camping Area | Fee: No fee required | Elevation: feet","location":""},{"name":"East Tower","type":"campsite","lat":30.3837058,"lng":-82.3305035,"description":"EAST TOWER CAMPGROUND\n\nType: Campground | Hours: Open 24 hours/day | Fee: No fee required | Water: No drinking water is available | Restrooms: No restroom available","location":""},{"name":"Thirteen Falls","type":"campsite","lat":44.165159,"lng":-71.5949679,"description":"THIRTEEN FALLS (Campground)\n\nType: Campground | Fee: No fee required | Restrooms: yes | Elevation: feet","location":""},{"name":"Beartree Campground","type":"campsite","lat":36.6669516,"lng":-81.6816702,"description":"This is a popular recreation area beside the scenic Beartree Lake complete with campsites, a picnic area, and nearby trails. Campsites are popular with tent campers since there are...","location":""},{"name":"Elizabeth Furnace Group Campground","type":"campsite","lat":38.9308411,"lng":-78.3211138,"description":"Elizabeth Furnace Recreation Area offers forested trails, campsites and open grassy picnic areas along the tranquil Passage Creek. Enjoy hiking the Pig Iron and Charcoal Interpreti...","location":""},{"name":"Emily Proctor Shelter & Tent Area","type":"campsite","lat":44.0014089,"lng":-72.9326113,"description":"Shelter and tent area located on the Long Trail in Breadloaf Wilderness.\n\nType: Campground | Hours: Open 24 hours/day | Fee: No fee required | Water: Water can be treated or filter...","location":""},{"name":"Cave Springs","type":"campsite","lat":36.7994516,"lng":-82.9255595,"description":"Cave Springs Recreation Area is situated within the picturesque farming community of Olinger Gap. Highlights of this recreation area include a campground, small spring-fed pond, ac...","location":""},{"name":"Headwaters Roadside Campsites","type":"campsite","lat":35.3352436,"lng":-82.7974906,"description":"HEADWATERS ROADSIDE CAMPSITES (Campground)\n\nType: Campground | Fee: No fee required | Elevation: feet","location":""},{"name":"Sandy Bottoms Recreation  Area (Campground)","type":"campsite","lat":34.9611178,"lng":-83.557504,"description":"SANDY BOTTOMS REC. AREA (Campground)\n\nType: Campground | Fees: Overnight Use: | Elevation: feet","location":""},{"name":"Silver Lake Campground","type":"campsite","lat":43.8970989,"lng":-73.0501013,"description":"Silver Lake Campground is a small, primitive campground located on Silver Lake and is only accessible by hiking 0.6 miles down the Goshen Trail, which starts at a parking lot at th...","location":""},{"name":"Bear Pen Shelter","type":"campsite","lat":38.3696196,"lng":-80.1759692,"description":"BEAR PEN SHELTER (Camping Area)\n\nType: Camping Area | Fee: No fee required | Elevation: feet","location":""},{"name":"Davis Path A.T. Camping Area","type":"campsite","lat":36.912785,"lng":-81.3777813,"description":"This is an Appalachain Trail shelter.\n\nType: Camping Area | Hours: open 24 hours/day | Fee: No fee required | Water: Water can be treated or filtered from nearby water sources | El...","location":""},{"name":"Hazard Mill Canoe Camp-Decommissioned","type":"campsite","lat":38.8283411,"lng":-78.3619471,"description":"Decommissioned\n\nType: Campground | Hours: Closed | Fee: No fee required | Water: No drinking water is available | Restrooms: No restroom available","location":""},{"name":"White Pine South Group Camp","type":"campsite","lat":35.2909295,"lng":-82.7379278,"description":"WHITE PINE SOUTH GROUP CAMP (Group Campground)\n\nType: Group Campground | Elevation: feet","location":""},{"name":"Cooley Glen Shelter","type":"campsite","lat":44.0497289,"lng":-72.9145313,"description":"Shelter located on the Long Trail in Breadloaf Wilderness.\n\nType: Campground | Hours: Open 24 hours/day | Fee: No fee required | Water: Water can be treated or filtered from nearby...","location":""},{"name":"Long Bottom Ford","type":"campsite","lat":34.8983401,"lng":-83.1866706,"description":"Also commonly referred to as \"Low Water Bridge Campground\", this quiet primitive campground is located on the banks of the Chattooga River with fishing, boating, and tubing opportu...","location":""},{"name":"Sucker Brook Shelter","type":"campsite","lat":43.8935489,"lng":-72.9720313,"description":"Trail shelter located on the North Country Trail and Long Trail in the Joseph Battell Wilderness.  3 sided Lean-to with privy on site\n\nType: Campground | Hours: Open 24 hours/day |...","location":""},{"name":"Bear Creek Lake Dispersed Campsite","type":"campsite","lat":35.2267288,"lng":-83.0255599,"description":"BEAR CREEK LAKE DISPERSED CAMPSITE (Camping Area)\n\nType: Camping Area | Fee: No fee required | Elevation: feet","location":""},{"name":"Three Ponds Shelter","type":"campsite","lat":43.9018544,"lng":-71.8211761,"description":"This three sided Adirondack Shelter near Rumney NH  is a first come first served facility that is free of charge.  The  2.3 mile trail leading to the shelter is a snowmobile trail ...","location":""},{"name":"Cottonwood Patch Area","type":"campsite","lat":34.9822289,"lng":-84.6388932,"description":"COTTONWOOD PATCH AREA (Horse Camp)\n\nType: Horse Camp | Fees: Overnight Use: | Elevation: feet","location":""},{"name":"Thunder Rock Cg","type":"campsite","lat":35.0761067,"lng":-84.4856043,"description":"THUNDER ROCK CG (Campground)\n\nType: Campground | Fees: Overnight Use: | Elevation: feet","location":""},{"name":"A.T. Black Mountain Gap Shelter","type":"campsite","lat":34.6175366,"lng":-84.1987942,"description":"A.T. BLACK MOUNTAIN GAP SHELTER (Camping Area)\n\nType: Camping Area | Fee: No fee required | Elevation: feet","location":""},{"name":"Camp Run","type":"campsite","lat":38.7466743,"lng":-79.1080585,"description":"Nestled along a Shenandoah Mountain drainage in Pendleton County, WV, Camp Run, which contains 9 campsites, provides an opportunity for primitive 1950's style camping that is popul...","location":""},{"name":"Kid Gore Shelter","type":"campsite","lat":43.0140187,"lng":-73.0434313,"description":"overnight shelter located on the Appalachian National Scenic Trail and coincident Long Trail\n\nType: Campground | Hours: Open 24 hours/day | Fee: No fee required | Water: Water can ...","location":""},{"name":"Camp Penacook Shelter","type":"campsite","lat":43.9580616,"lng":-71.2687762,"description":"CAMP PENACOOK SHELTER (Campground)\n\nType: Campground | Fee: No fee required","location":""},{"name":"Great Meadows Campground","type":"campsite","lat":36.628304,"lng":-84.7265495,"description":"Great Meadows Campground is located off Rock Creek-Bell Farm Road (Forest #137) in McCreary County and features 18 primitive sites for tent and RV camping, picnic tables, parking a...","location":""},{"name":"Hopper Creek","type":"campsite","lat":37.5603194,"lng":-79.508832,"description":"Hopper Creek Group Campground offers a shaded and rustic atmosphere for group tent camping with an open area for activities and a large campfire ring for evening gatherings. Becaus...","location":""},{"name":"Zilpo Recreation Area","type":"campsite","lat":38.0709163,"lng":-83.4842515,"description":"Zilpo Recreation Area is located at the end of the Zilpo Scenic Byway on a peninsula on the south shore of Cave Run Lake. Zilpo is a prime destination for families. The recreation ...","location":""},{"name":"Turkey Foot Campground","type":"campsite","lat":37.4660283,"lng":-83.9166326,"description":"Turkey Foot Campground is located off Elsam Fork Road (Forest #345) along the banks of War Fork Creek in Jackson County. The gravel road into the campground is steep. There is a lo...","location":""},{"name":"Wilson Creek A.T. Shelter","type":"campsite","lat":37.4183407,"lng":-79.7847253,"description":"This is an Appalachain Trail shelter.\n\nType: Camping Area | Hours: Open 24 hours/day | Fee: No fee required | Water: Water can be treated or filtered from nearby water sources | Re...","location":""},{"name":"Gabions Campground","type":"campsite","lat":44.6202863,"lng":-83.846116,"description":"Gabions Campground offers camping on the National Scenic stretch of the Au Sable River. Natural springs are common on this section of the river, including a small one at the river'...","location":""},{"name":"Liberty Springs","type":"campsite","lat":44.117841,"lng":-71.6473149,"description":"This tent side, built and maintained by the Appalachain Mountain Club, is situated on Mt. Liberty off the Liberty Spring Trail (Appalachian Trail) 0.3 miles below the junction with...","location":""},{"name":"Trimpi A.T. Shelter","type":"campsite","lat":36.7488961,"lng":-81.4808368,"description":"The Trimpi Shelter is a stone shelter built in 1975 and located in Southern Virginia just north of Troutville. This shelter is maintained by the Mt. Rogers Appalachian Trail Club.\n...","location":""},{"name":"Basin","type":"campsite","lat":44.267457,"lng":-71.0228507,"description":"Basin Campground is located in a rustic, remote part of White Mountain National Forest in New Hampshire, about 15 miles north of Fryeburg, Maine. It is a small facility with access...","location":""},{"name":"Burrells Ford","type":"campsite","lat":34.9690117,"lng":-83.1181369,"description":"Burrells Ford Campground is located on the Chattooga Wild and Scenic River near many miles of hiking trails and is open year-round with no charge. The campground is a 0.25 mile wal...","location":""},{"name":"Hune Bridge Campground","type":"campsite","lat":39.5095077,"lng":-81.2496596,"description":"The campground is located across the historic Hune Covered Bridge. The campground has four camping sites just below the covered bridge on the Little Muskingum River. This campgroun...","location":""},{"name":"Buck Lake","type":"campsite","lat":29.0984555,"lng":-81.6508699,"description":"Buck Lake is a group camping facility in the heart of Ocala National Forest in Florida. Great for family reunions and social gatherings, the campground can host a group of up to 50...","location":""},{"name":"War Spur A.T. Shelter","type":"campsite","lat":37.396674,"lng":-80.4719477,"description":"This is an Appalachain Trail Shelter\n\nType: Camping Area | Hours: Open year round, 24 hours/day | Fee: No fee required | Water: Water can be treated or filtered from nearby water s...","location":""},{"name":"North River Dispersed Campsites","type":"campsite","lat":35.3280068,"lng":-84.1330042,"description":"NORTH RIVER DISPERSED CAMPSITES (Camping Area)\n\nType: Camping Area | Fee: No fee required | Elevation: feet","location":""},{"name":"Lockridge Shelter","type":"campsite","lat":38.1548565,"lng":-79.9443341,"description":"LOCKRIDGE SHELTER (Camping Area)\n\nType: Camping Area | Fee: No fee required | Elevation: feet","location":""},{"name":"Grout Pond","type":"campsite","lat":43.0455387,"lng":-72.9545713,"description":"Fee campground with access to the 80 acre Grout Pond, site includes 17 campsites, a handpump for potable water, vault toilet facilities and trails\n\nType: Campground | Hours: Check ...","location":""},{"name":"Jenny Knob A.T. Shelter","type":"campsite","lat":37.1555628,"lng":-80.9775034,"description":"This is an Appalachain Trail Shelter\n\nType: Camping Area | Hours: Open 24 hours/day | Fee: No fee required | Water: Water can be treated or filtered from nearby water sources | Res...","location":""},{"name":"Kuykendall Group Campground","type":"campsite","lat":35.2212487,"lng":-82.7740667,"description":"KUYKENDALL GROUP CAMPGROUND (Group Campground)\n\nType: Group Campground | Elevation: feet","location":""},{"name":"Stone Church Horse Campground","type":"campsite","lat":39.6092177,"lng":-82.2410829,"description":"Named for the skeletal ruins of an old stone church nearby, the Stone Church Horse Campground offers 10 campsites, each with a 45' long by 15' wide parking space. Two sites are ful...","location":""},{"name":"Williams River Rua Sites D2","type":"campsite","lat":38.3458065,"lng":-80.2363132,"description":"WILLIAMS RIVER RUA SITES D2 (Campground)\n\nType: Campground | Fees: Overnight Use: | Restrooms: Vault Toilets are available | Elevation: feet","location":""},{"name":"Sylco Campground","type":"campsite","lat":35.0281067,"lng":-84.6024043,"description":"SYLCO CAMPGROUND\n\nType: Campground | Fee: No fee required","location":""},{"name":"Porter Hunt Camp & Trailhead","type":"campsite","lat":30.1766347,"lng":-84.677221,"description":"Primary access to Porter Lake, Primitive camping and vault toilet\n\nType: Campground | Hours: Open 24 hours/day | Fee: No fee required | Water: Not for drinking | Restrooms: Vault t...","location":""},{"name":"Lost Corral Horse Camp","type":"campsite","lat":35.2393067,"lng":-84.5482043,"description":"Located at the entrance to the Starr Mountain and Chestnut Mountain Horse Trails, this campground features 20 roomy campsites, each with a picnic table, fire ring, lantern post and...","location":""},{"name":"Hidden Valley Campground","type":"campsite","lat":38.0991742,"lng":-79.8219475,"description":"With vast fields of wildflowers that attract countless butterflies, birds, and other wildlife, the Hidden Valley Recreation Area is appropriately named due to its secluded and hidd...","location":""},{"name":"Big Rock Campground","type":"campsite","lat":38.2958725,"lng":-80.5246623,"description":"BIG ROCK CAMPGROUND (Campground)\n\nType: Campground | Fees: Overnight Use: | Restrooms: Vault Toilet are available | Elevation: feet | Activities: CAMPING, TRAILER | FISHING, RIVER ...","location":""},{"name":"Greendale","type":"campsite","lat":43.3506488,"lng":-72.8208512,"description":"Fee campground with 11 campsites, amenities include tables, fire rings and vault toilets\n\nType: Campground | Hours: Check in: 2:00 p.m.; Check-out: 12:00 p.m.; Quiet hours are 10:0...","location":""},{"name":"Stratton View Shelter & Tent Area","type":"campsite","lat":43.1061197,"lng":-72.9716683,"description":"overnight shelter located within one mile of the Appalachian National Scenic Trail and coincident Long Trail\n\nType: Campground | Hours: Open 24 hours/day | Fee: No fee required | W...","location":""},{"name":"A.T. Deep Gap Shelter","type":"campsite","lat":34.8823767,"lng":-83.646014,"description":"A.T. DEEP GAP SHELTER (Camping Area)\n\nType: Camping Area | Fee: No fee required | Elevation: feet","location":""},{"name":"Willow Bay Rec Area","type":"campsite","lat":41.9888972,"lng":-78.9175031,"description":"Willow Bay Recreation Area was built in the early 1960s by the U. S. Army Corps of Engineers. When completed, it was transferred to the USDA, Forest Service. Willow Bay Recreation ...","location":""},{"name":"Big Bend Campground","type":"campsite","lat":38.8915527,"lng":-79.240095,"description":"BIG BEND CAMPGROUND (Campground)\n\nType: Campground | Fees: Overnight Use: | Elevation: feet","location":""},{"name":"Mcclintic Point Primitive","type":"campsite","lat":38.0133408,"lng":-79.9219476,"description":"McClintic Point at Lake Moomaw sits on the northern end of the lake. Enjoy the easygoing, peaceful vibe of McClintic Point's rustic campground set among scattered trees and open fi...","location":""},{"name":"Coppermine Shelter","type":"campsite","lat":44.160267,"lng":-71.7243209,"description":"The historic Coppermine Shelter will accommodate about 6 people however, there is no privy or desigted tent sites.  Please practice Leave No Trace.\n\nType: Campground | Hours: Open ...","location":""},{"name":"State Line Cg","type":"campsite","lat":35.2615068,"lng":-84.0806042,"description":"Located adjacent to the Tellico River on the Tennessee-North Carolina stateline, each site in the Stateline Campground contains two picnic tables, two lantern posts, and a grill/fi...","location":""},{"name":"Herbert","type":"campsite","lat":34.5730741,"lng":-81.4597149,"description":"CLOSED\n\nType: Campground | Hours: CLOSED | Fee: No fee required | Elevation: feet","location":""},{"name":"Arrowhead Campground","type":"campsite","lat":35.439475,"lng":-80.072308,"description":"Arrowhead Campground lies in the Badin Lake Recreation Area, a hub for outdoor activities in central North Carolina's Uwharrie National Forest. The variety of sites in the campgrou...","location":""},{"name":"Tate Branch Campground","type":"campsite","lat":34.9544512,"lng":-83.552504,"description":"This much admired 17-site developed campground is located at the junction of Tallulah River and Tate Branch in the North Georgia mountains. Whether traveling to the forest to camp,...","location":""},{"name":"Hooks Brook Boat To","type":"campsite","lat":41.9622305,"lng":-78.9430587,"description":"This rustic campground is located on the west bank of the Allegheny Reservoir just south of Webbs Ferry Boat Launch. It is accessible by boat via the Allegheny Reservoir.\nThe close...","location":""},{"name":"Cobb Hunt Camp","type":"campsite","lat":30.2468057,"lng":-82.4106035,"description":"COBB CAMPGROUND\n\nType: Campground | Hours: Open 24 hours/day | Fees: No fees are required for this site | Water: No drinking water is available | Restrooms: No restroom available","location":""},{"name":"Rough Ridge Campground","type":"campsite","lat":35.2609068,"lng":-84.0842042,"description":"One of two group campgrounds located adjacent to the Tellico River. Each site in Rough Ridge Campground contains two picnic tables, two lantern posts, and a grill/fire ring. These ...","location":""},{"name":"West Fork Campground","type":"campsite","lat":34.9477845,"lng":-83.2013928,"description":"WESTFORK CAMPGROUND has 5 campsites located in the campground and public access to the Chattooga River W&S on designated paths\n\nType: Campground | Fees: Overnight Use: | Elevation:...","location":""},{"name":"A.T. Cable Gap Shelter","type":"campsite","lat":35.4153108,"lng":-83.7734221,"description":"Trail shelter located on the Appalachian Trail.\n\nType: Camping Area | Hours: Open 24 hours/day | Fee: No fee required | Water: No drinking water is available | Restrooms: Compostin...","location":""},{"name":"West Morris Mtn. Campground","type":"campsite","lat":35.4281776,"lng":-79.9938831,"description":"WEST MORRIS MTN. CAMPGROUND (Campground)\n\nType: Campground | Restrooms: Two vault toilets | Elevation: feet","location":""},{"name":"Grapevine","type":"campsite","lat":34.8230007,"lng":-83.1804879,"description":"Grapevine Campground is located along the banks of the Chauga River, one of the popular fishing streams on the district.  It is open year round with no charge and site amenities in...","location":""},{"name":"Seneca Shadows Campground","type":"campsite","lat":38.8213677,"lng":-79.386321,"description":"SENECA SHADOWS CAMPGROUND (Campground)\n\nType: Campground | Fees: Overnight Use: | Elevation: feet","location":""},{"name":"Cove Mountain A.T. Shelter","type":"campsite","lat":37.5111185,"lng":-79.6508363,"description":"This is an Appalachain Trail shelter.\n\nType: Camping Area | Hours: Open year round, 24 hours/day | Fee: No fee required | Water: Water can be treated or filtered from nearby water ...","location":""},{"name":"Briar Bottom Group Camp","type":"campsite","lat":35.7489538,"lng":-82.2274487,"description":"Briar Bottom Group Campground is the perfect getaway for visitors to enjoy mountain scenery and easy access to hiking trails. The campground sits at the base of Mt. Mitchell, the h...","location":""},{"name":"Jess Judy Campground","type":"campsite","lat":38.8809997,"lng":-79.253884,"description":"JESS JUDY CAMPGROUND (Group Campground)\n\nType: Group Campground | Fees: Overnight Use: | Elevation: feet","location":""},{"name":"Camp Roosevelt","type":"campsite","lat":38.7330633,"lng":-78.517225,"description":"Camp Roosevelt Campground is the site of the first Civilian Conservation Corps Camp in the Nation. Follow the path through the CCC camp and view the foundations where the actual bu...","location":""},{"name":"Valley Way Tent Site","type":"campsite","lat":44.3353068,"lng":-71.287128,"description":"VALLEY WAY TENT PLATFORMS (Campground)\n\nType: Camping Area | Fee: No fee required | Elevation: feet","location":""},{"name":"Holly Flats Cg","type":"campsite","lat":35.2857068,"lng":-84.1782042,"description":"Holly Flats is located along the banks of Bald River and has 15 campsites. Each rustic site has a picnic table, camping pad, grill, and lantern post. It is in a remote location and...","location":""},{"name":"Colon Hollow Shelter","type":"campsite","lat":37.5433407,"lng":-79.5847252,"description":"This is a former Appalachian Trail Shelter which has been moved to the vicinity of North Creek Campground / Jennings Creek area.   Walk ~200 yards behind a closed gate to access th...","location":""},{"name":"Morganton Point Recreation Area","type":"campsite","lat":34.8688956,"lng":-84.2441709,"description":"MORGANTON POINT CAMPGROUND (Campground)\n\nType: Campground | Fees: Overnight Use: | Elevation: 1,700 feet","location":""},{"name":"Boedne Bay","type":"campsite","lat":46.0175587,"lng":-84.9720134,"description":"We're sorry, Boedne Bay educational camp is no longer in service.\n\nType: Organization Site | Hours: We're sorry, Boedne Bay educational camp is no longer in service. | Fee: No fee ...","location":""},{"name":"Willis Knob Horse Camp","type":"campsite","lat":34.9002845,"lng":-83.2225039,"description":"WILLIS KNOB HORSE CAMP (Horse Camp) is a site with camp units managed primarily to accomodate riding and pack stock and overnight use.\n\nType: Horse Camp | Season: Year-round | Hour...","location":""},{"name":"North Mills River Campground","type":"campsite","lat":35.4076379,"lng":-82.6445398,"description":"NORTH MILLS RIVER CAMPGROUND (Campground)\n\nType: Campground | Elevation: feet","location":""},{"name":"Gentian Pond Shelter","type":"campsite","lat":44.4535391,"lng":-71.0714617,"description":"GENTIAN POND SHELTER (Campground)\n\nType: Campground | Fee: No fee required | Elevation: feet","location":""},{"name":"Hitchcock Hunt Camp & Boat Ramp","type":"campsite","lat":30.0809056,"lng":-84.6509041,"description":"HITCHCOCK HUNT CAMP & BOAT RAMP (Camping Area)\n\nType: Camping Area | Fee: No fee required | Elevation: feet","location":""},{"name":"Shaws Fork Horse Camp","type":"campsite","lat":38.311952,"lng":-79.3841697,"description":"This equestrian campground, which has 5 campsites, provides access to trailheads and is popular among hunters. This site is also near the historic Civil War battlefield in McDowell...","location":""},{"name":"A.T. Stan Murray Shelter","type":"campsite","lat":36.112368,"lng":-82.0657257,"description":"A.T. STAN MURRAY SHELTER (Camping Area)\n\nType: Camping Area | Fee: No fee required | Elevation: feet","location":""},{"name":"A.T. Cold Spring Shelter","type":"campsite","lat":35.2312078,"lng":-83.559989,"description":"A.T. COLD SPRING SHELTER (Camping Area)\n\nType: Camping Area | Fee: No fee required | Elevation: feet","location":""},{"name":"A.T. Laurel Fork Shelter","type":"campsite","lat":36.2787455,"lng":-82.1362021,"description":"A.T. LAUREL FORK SHELTER (Camping Area)\n\nType: Camping Area | Fee: No fee required | Elevation: feet","location":""},{"name":"North River Cg","type":"campsite","lat":35.3181068,"lng":-84.1257042,"description":"Want a family oriented setting just off the beaten path? This quiet campground offers 11 campsites with a picnic table, fire ring, and lantern post. Sites 5 and 6 are side-by-side,...","location":""},{"name":"Bailey Gap A.T. Shelter","type":"campsite","lat":37.4008407,"lng":-80.5775033,"description":"This is an Appalachian Trail Shelter\n\nType: Camping Area | Hours: Open year round, 24 hours/day | Fee: No fee required | Water: Water can be treated or filtered from nearby water s...","location":""},{"name":"Johnny Meadows Camping","type":"campsite","lat":38.7690507,"lng":-79.5599361,"description":"JOHNNY MEADOWS CAMPING (Camping Area)\n\nType: Camping Area | Fee: No fee required | Elevation: feet","location":""},{"name":"Indian Boundary Recreation Area","type":"campsite","lat":35.3999068,"lng":-84.1069042,"description":"If you are looking for a base camp to explore the vicinity or a destination campground with modern facilities and a family atmosphere, try Indian Boundary Recreation Area (IBRA), a...","location":""},{"name":"Seth Warner Shelter","type":"campsite","lat":42.7982297,"lng":-73.1185563,"description":"overnight shelter located on the Appalachian National Scenic Trail and coincident Long Trail\n\nType: Campground | Hours: Open 24 hours/day | Fee: No fee required | Water: Water can ...","location":""},{"name":"Meadows Orv Campground","type":"campsite","lat":44.5608418,"lng":-84.3122272,"description":"Meadows Campground is a small, 13 single site area primarily used by OHV riders. The sites accommodate trailers/RV's up to 25 feet in length. The campground has drinking water and ...","location":""},{"name":"Melville Nauheim Shelter","type":"campsite","lat":42.8877787,"lng":-73.0959813,"description":"overnight shelter located on the Appalachian National Scenic Trail and coincident Long Trail\n\nType: Campground | Hours: Open 24 hours/day | Fee: No fee required | Water: Water can ...","location":""},{"name":"Yate'S Place","type":"campsite","lat":35.3604312,"lng":-79.990734,"description":"YATE'S PLACE (Campground)\n\nType: Campground | Fee: No fee required | Restrooms: One vault toilet onsite | Elevation: feet","location":""},{"name":"Salt Lake Camping Area","type":"campsite","lat":46.3328077,"lng":-84.9921094,"description":"SALT LAKE CAMPING AREA (Camping Area)\n\nType: Camping Area | Fee: No fee required | Elevation: feet","location":""},{"name":"Uwharrie Hunt Camp","type":"campsite","lat":35.4289293,"lng":-80.0201548,"description":"UWHARRIE HUNT CAMP (Campground)\n\nType: Campground | Restrooms: Two vault toilets | Elevation: feet","location":""},{"name":"Mead Explorer Base Camp","type":"campsite","lat":43.8286109,"lng":-71.4833098,"description":"MEAD EXPLORER BASE CAMP (Organization Site)\n\nType: Organization Site | Fee: No fee required | Elevation: feet","location":""},{"name":"Pickle Branch A.T. Shelter","type":"campsite","lat":37.3805629,"lng":-80.1841698,"description":"This is an Appalachain Trail shelter.\n\nType: Camping Area | Hours: Open year round, 24 hours/day | Fee: No fee required | Water: Water can be treated or filtered from nearby water ...","location":""},{"name":"Sherando Lake Group Campground","type":"campsite","lat":37.9191135,"lng":-79.0183388,"description":"Sherando Lake Recreation Area is known locally as the jewel of the Blue Ridge Mountains. Families enjoy picnicking in this shaded and woody area, while relaxing on the sandy beach ...","location":""},{"name":"North Fork Shelter","type":"campsite","lat":38.2584015,"lng":-80.3243093,"description":"NORTH FORK SHELTER (Camping Area)\n\nType: Camping Area | Fee: No fee required | Elevation: feet","location":""},{"name":"Baldface Shelter","type":"campsite","lat":44.2348554,"lng":-71.0633269,"description":"BALDFACE SHELTER (Campground)\n\nType: Campground | Fee: No fee required | Elevation: feet","location":""},{"name":"Lamping Homestead Campground","type":"campsite","lat":39.6301828,"lng":-81.1906376,"description":"In Monroe County, this area offers camping, picnicking, fishing, canoeing, and a scenic hiking trail. The site has six walk-in campsites, eight picnic sites, and a picnic shelter. ...","location":""},{"name":"Rolston Rest Shelter","type":"campsite","lat":43.7131149,"lng":-72.8614343,"description":"ROLSTON REST SHELTER (Campground)\n\nType: Campground | Hours: Open 24 hours/day | Fee: No fee required | Water: Water can be treated or filtered from nearby water sources | Elevatio...","location":""},{"name":"Elmwood","type":"campsite","lat":33.1989652,"lng":-79.4700678,"description":"This recreation area is located in the northeastern portion of the Francis Marion National Forest. It's a popular camp during deer and turkey hunts on the Waterhorn Hunt Unit. The ...","location":""},{"name":"Nct-Tracy Run North Shelter","type":"campsite","lat":41.9620253,"lng":-78.9182201,"description":"NCT-TRACY RUN NORTH SHELTER (Campground)\n\nType: Campground | Fee: No fee required | Elevation: feet","location":""},{"name":"Tip Top","type":"campsite","lat":34.4971561,"lng":-81.7539787,"description":"CLOSED\n\nType: Group Campground | Hours: CLOSED | Fee: No fee required | Elevation: feet","location":""},{"name":"Bourn Pond","type":"campsite","lat":43.1035187,"lng":-73.0050713,"description":"Bourn Pond\n\nType: Camping Area | Fee: No fee required | Elevation: feet","location":""},{"name":"Nct-Big Boulder Shelter","type":"campsite","lat":41.5390762,"lng":-79.2237032,"description":"NCT-BIG BOULDER SHELTER (Campground)\n\nType: Campground | Fee: No fee required | Elevation: feet","location":""},{"name":"Alexander Springs","type":"campsite","lat":29.0792555,"lng":-81.5795532,"description":"Alexander Springs Recreation Area is located in the Ocala National Forest near the beautiful, turquoise waters of Alexander Springs. With forested scenery and abundant water, the r...","location":""},{"name":"Dicks Creek Dispersed Area","type":"campsite","lat":34.6813955,"lng":-83.9383375,"description":"DICKS CREEK DISPERSED AREA (Camping Area)\n\nType: Camping Area | Fee: No fee required | Elevation: feet","location":""},{"name":"Blackjack Lodge Shelter","type":"campsite","lat":34.7948129,"lng":-76.768643,"description":"BLACKJACK LODGE SHELTER (Camping Area)\n\nType: Camping Area | Fee: No fee required | Elevation: feet","location":""},{"name":"Gatewood Campground","type":"campsite","lat":38.7173137,"lng":-79.5840221,"description":"GATEWOOD CAMPGROUND (Group Campground)\n\nType: Group Campground | Fees: Overnight Use:","location":""},{"name":"House Log Shelter","type":"campsite","lat":38.2603075,"lng":-80.3549703,"description":"HOUSE LOG SHELTER (Camping Area)\n\nType: Camping Area | Fee: No fee required | Elevation: feet","location":""},{"name":"Spruce Knob Lake Campground","type":"campsite","lat":38.7075796,"lng":-79.5849451,"description":"SPRUCE KNOB LAKE CAMPGROUND (Campground)\n\nType: Campground | Fees: Overnight Use: | Elevation: feet","location":""},{"name":"Red Bridge Rec Area","type":"campsite","lat":41.777786,"lng":-78.8875031,"description":"Red Bridge is a busy campground that was constructed in the late 1960s as part of the recreation development related to the Kinzua Dam. Nearby attractions include: Kinzua Dam, Kinz...","location":""},{"name":"Sedalia Campground","type":"campsite","lat":34.632181,"lng":-81.7371775,"description":"Sedalia Seasonal Camp is part of the Enoree Ranger District of the Francis Marion Sumter National Forest, managed by the U.S. Department of Agriculture's Forest Service. This camp ...","location":""},{"name":"High Knob Campground","type":"campsite","lat":36.8897294,"lng":-82.6216705,"description":"The High Knob Recreation Area was built by the Civilian Conservation Corps (CCC) in the late 1930's. This remote and private location offers cooler summer temperatures due to its h...","location":""},{"name":"Skyline Lodge & Tent Area","type":"campsite","lat":43.9868689,"lng":-72.9368113,"description":"The Skyline Trail ascends easily from the trailhead on an old woods road, crosses two small streams, and enters the Breadloaf Wilderness. The trail continues more steeply by long s...","location":""},{"name":"Cyper Creek","type":"campsite","lat":33.8785181,"lng":-82.1139958,"description":"CYPER CREEK (Group Campground)\n\nType: Group Campground | Elevation: feet","location":""},{"name":"Trident Col Tentsite","type":"campsite","lat":44.4416435,"lng":-71.1364119,"description":"TRIDENT COL TENTSITE (Campground)\n\nType: Campground | Fee: No fee required | Elevation: feet","location":""},{"name":"A.T. Jerry Cabin Shelter","type":"campsite","lat":36.056357,"lng":-82.6572738,"description":"A.T. JERRY CABIN SHELTER (Camping Area)\n\nType: Camping Area | Fee: No fee required | Elevation: feet","location":""},{"name":"Thistle Hill Shelter","type":"campsite","lat":43.6951789,"lng":-72.4758011,"description":"THISTLE HILL SHELTER\n\nType: Campground | Hours: Open 24 hours/day | Fee: No fee required | Water: Water can be treated or filtered from nearby water sources","location":""},{"name":"Garfield Ridge Shelter","type":"campsite","lat":44.1907618,"lng":-71.6083826,"description":"The Garfield Ridge Shelter is located at approximately 3,900 ft. on the eastern shoulder of Mt. Garfield just off the Garfield Ridge Trail (Appalachian Trail). The shelter is a 12-...","location":""},{"name":"Sunrise Shelter","type":"campsite","lat":43.8233769,"lng":-72.9460033,"description":"SUNRISE SHELTER\n\nType: Campground | Hours: Open 24 hours/day | Fee: No fee required | Water: Water can be treated or filtered from nearby water sources","location":""},{"name":"Paint Creek Dispersed Campsites","type":"campsite","lat":35.9521496,"lng":-82.891356,"description":"PAINT CREEK DISPERSED CAMPSITES (Camping Area)\n\nType: Camping Area | Fee: No fee required | Elevation: feet","location":""},{"name":"Cold River","type":"campsite","lat":44.264478,"lng":-71.0133297,"description":"Cold River Campground is located in a rustic, remote part of White Mountain National Forest in New Hampshire, about 15 miles north of Fryeburg, Maine. It is a small facility with a...","location":""},{"name":"A.T. Whitley Gap Shelter","type":"campsite","lat":34.7123867,"lng":-83.8338041,"description":"Wooden Shelter approximately 1 mile from parking lot\n\nType: Camping Area | Hours: Open 24 hours/day | Fee: No fee required | Water: No water is available | Restrooms: No restroom a...","location":""},{"name":"Luzerne Horse Trail Campground","type":"campsite","lat":44.5858418,"lng":-84.2891717,"description":"The Luzerne Horse trail Campground is a first come, first served campground along the Michigan Shore to Shore Horse Trail. With easy access to the Shore to Shore Trail, this is the...","location":""},{"name":"Hawk","type":"campsite","lat":39.1163967,"lng":-78.4991694,"description":"Hawk Campground sits nestled in the Alleghany Mountains surround by a spectacular nature setting. Experience an exciting hiking experience with easy access to the Tuscarora Trail r...","location":""},{"name":"Somerset Airfield","type":"campsite","lat":42.9532087,"lng":-72.9902313,"description":"campground with limited amenities and 7 campsites located in Somerset, VT\n\nType: Campground | Hours: Open 24 hours/day | Fees: No fees are required for this site | Water: Water can...","location":""},{"name":"Blue Meadow Group Campground","type":"campsite","lat":37.9212095,"lng":-80.2606202,"description":"BLUE MEADOW GROUP CAMPGROUND (Group Campground)\n\nType: Group Campground | Elevation: feet","location":""},{"name":"Marlin Mountain Shelter","type":"campsite","lat":38.2331945,"lng":-80.0080732,"description":"MARLIN MOUNTAIN SHELTER (Camping Area)\n\nType: Camping Area | Fee: No fee required | Elevation: feet","location":""},{"name":"Clarion River Campsites","type":"campsite","lat":41.3597476,"lng":-79.0069475,"description":"Twenty-six primitive, numbered campsites are dotted along the Clarion Wild and Scenic River from Irwin Run up to and along Millstone Creek. Campsites can be reached via River Road ...","location":""},{"name":"Old Job Shelter","type":"campsite","lat":43.3537988,"lng":-72.9290913,"description":"Overnight shelter on the Old Job trail system\n\nType: Campground | Hours: Open 24 hours/day | Fee: No fee required | Water: Water can be treated or filtered from nearby water source...","location":""},{"name":"Horseshoe Lake Campground","type":"campsite","lat":44.6008419,"lng":-83.7652826,"description":"The small 16-acre lake offers a variety of fishing opportunities. The one-mile walk around the north end of the lake provides for wildlife sightings and scenic views of the lake an...","location":""},{"name":"Pocahontas Campground","type":"campsite","lat":38.1028825,"lng":-79.9672421,"description":"POCAHONTAS CAMPGROUND (Campground)\n\nType: Campground | Season: April 1 to November 30 | Fees: Overnight Use: | Restrooms: Vault Toilet | Elevation: feet | Activities: BIRD WATCHING...","location":""},{"name":"Two Points Group Campground","type":"campsite","lat":38.6200045,"lng":-82.633366,"description":"This group campground is located above the lake between the beach and the boat launch. The capacity of the group campground is 50 people. There is a group picnic shelter on site. 6...","location":""},{"name":"Island Campground","type":"campsite","lat":38.5769866,"lng":-79.7016521,"description":"ISLAND CAMPGROUND (Campground)\n\nType: Campground | Fees: Overnight Use: | Elevation: feet","location":""},{"name":"Jones Creek Dispersed Area","type":"campsite","lat":34.6077844,"lng":-84.1550042,"description":"JONES CREEK DISPERSED AREA (Camping Area)\n\nType: Camping Area | Fee: No fee required | Elevation: feet","location":""},{"name":"Niday A.T. Shelter","type":"campsite","lat":37.3858407,"lng":-80.2588921,"description":"This is an Appalachain Trail Shelter\n\nType: Camping Area | Hours: Open 24 hours/day | Fee: No fee required | Water: Water can be treated or filtered from nearby water sources | Res...","location":""},{"name":"Flanners Beach Campground","type":"campsite","lat":34.9818473,"lng":-76.9488659,"description":"FLANNERS BEACH CAMPGROUND (Campground)\n\nType: Campground | Hours: 24 Hours | Fees: Overnight Site: | Restrooms: 1 Showerhouse - 1 toilet, 1 Urinal Mens Side, 2 toilets Womens Side,...","location":""},{"name":"A.T. Abington Gap Shelter","type":"campsite","lat":36.5811358,"lng":-81.9020543,"description":"A.T. ABINGTON GAP SHELTER (Camping Area)\n\nType: Camping Area | Fee: No fee required | Elevation: feet","location":""},{"name":"Harmon Den Horse Camp","type":"campsite","lat":35.757668,"lng":-82.9751622,"description":"HARMON DEN HORSE CAMP (Horse Camp)\n\nType: Horse Camp | Fees: Overnight Use: | Elevation: feet","location":""},{"name":"Pine River Recreation Area Campground","type":"campsite","lat":44.5633419,"lng":-83.5994492,"description":"This is a popular campground during fishing season. Recreation opportunities include hunting, picnicking, mushroom gathering and berry picking. The picnic shelter is a Civilian Con...","location":""},{"name":"Lost Mountain A.T. Shelter","type":"campsite","lat":36.6427849,"lng":-81.6577813,"description":"This is an Appalachain Trail shelter.\n\nType: Camping Area | Hours: Open 24 hours/day | Fee: No fee required | Water: Water can be treated or filtered from nearby water sources | Re...","location":""},{"name":"Pennsylvania Field Dog Trial Association","type":"campsite","lat":41.4786193,"lng":-79.0419475,"description":"PENNSYLVANIA FIELD DOG TRIAL ASSOCIATION (Organization Site)\n\nType: Organization Site | Fee: No fee required | Elevation: feet","location":""},{"name":"Little Oak Campground","type":"campsite","lat":36.5214071,"lng":-82.0646037,"description":"Looking to camp near a large lake? Try Little Oak Recreation Area, located on a peninsula along the eastern shore of South Holston Lake in Sullivan County. In this campground, most...","location":""},{"name":"Oconee River Rec. Area","type":"campsite","lat":33.7208398,"lng":-83.2913928,"description":"OCONEE RIVER REC. AREA (Campground)\n\nType: Campground | Fees: Overnight Use: | Elevation: 400 feet","location":""},{"name":"Happy Hill Shelter","type":"campsite","lat":43.7240489,"lng":-72.3652811,"description":"HAPPY HILL SHELTER\n\nType: Campground | Hours: Open 24 hours/day | Fee: No fee required | Water: Water can be treated or filtered from nearby water sources","location":""},{"name":"Lake Chatuge Recreation Area","type":"campsite","lat":34.9547289,"lng":-83.7794485,"description":"LAKE CHATUGE (Campground)\n\nType: Campground | Fee: No fee required | Elevation: 2,000 feet","location":""},{"name":"A.T. Tray Mountain Shelter","type":"campsite","lat":34.8039767,"lng":-83.6768841,"description":"A.T. TRAY MOUNTAIN SHELTER (Camping Area)\n\nType: Camping Area | Fee: No fee required | Elevation: feet","location":""},{"name":"Cranberry River Campsites","type":"campsite","lat":38.2955915,"lng":-80.5158463,"description":"CRANBERRY RUA CAMPSITES (Campground)\n\nType: Campground | Fees: Overnight Use: | Water: Vault Toilets are available | Elevation: feet","location":""},{"name":"A.T. Wesser Bald Shelter","type":"campsite","lat":35.2824868,"lng":-83.5821141,"description":"A.T. WESSER BALD SHELTER (Camping Area)\n\nType: Camping Area | Fee: No fee required | Elevation: feet","location":""},{"name":"Poplar  Branch Shelter","type":"campsite","lat":38.3015645,"lng":-80.4241253,"description":"POPLAR  BRANCH SHELTER (Camping Area)\n\nType: Camping Area | Fee: No fee required | Elevation: feet","location":""},{"name":"Koomer Ridge Campground","type":"campsite","lat":37.784039,"lng":-83.632638,"description":"Koomer Ridge Campground is located off KY 15 and is a one-stop shop entry point for exploring the Red River Gorge. The developed campground provides 54 campsites suitable for tent ...","location":""},{"name":"Standing Indian Campground","type":"campsite","lat":35.0734347,"lng":-83.530109,"description":"STANDING INDIAN CAMPGROUND (Campground)\n\nType: Campground | Fees: Overnight Use: | Elevation: feet","location":""},{"name":"Doe Lake","type":"campsite","lat":29.0398888,"lng":-81.8197033,"description":"The Doe Lake Group Camp is centered around a classic 1930s Civilian Conservation Corps dining hall that has been historically restored. This beautiful building sits atop a grassy h...","location":""},{"name":"Cave Mountain Lake Campground","type":"campsite","lat":37.5744519,"lng":-79.5344474,"description":"Nestled in the Blue Ridge Mountains of Virginia, the Cave Mountain Lake Recreation Area welcomes generations of families who enjoy the rustic beauty and peacefulness of the area. C...","location":""},{"name":"Pine Run Loop Campground","type":"campsite","lat":38.0136655,"lng":-80.0058362,"description":"PINE RUN LOOP CAMPGROUND (Campground)\n\nType: Campground | Season: Mid May to Labor Day | Hours: 7am to 9pm\nMain entrance gate closed from 9pm to 7am daily during rec season (Mid Ma...","location":""},{"name":"Province Pond Shelter","type":"campsite","lat":44.132056,"lng":-71.0484743,"description":"PROVINCE POND SHELTER (Campground)\n\nType: Campground | Fee: No fee required | Elevation: feet","location":""},{"name":"Mckinley Horse Trail Campground","type":"campsite","lat":44.6402863,"lng":-83.9727827,"description":"The camp is located in a red pine plantation and is available is available throughout the year for hunting, backpacking, biking and general camping. There are no designated sites, ...","location":""},{"name":"Minerva Hinchey Shelter","type":"campsite","lat":43.4878978,"lng":-72.9256743,"description":"MINERVA HINCHEY SHELTER (Campground)\n\nType: Campground | Fee: No fee required | Elevation: feet","location":""},{"name":"Williams River Rua Sites D4","type":"campsite","lat":38.3274035,"lng":-80.2145162,"description":"WILLIAMS RIVER RUA SITES D4 (Campground)\n\nType: Campground | Fees: Overnight Use: | Restrooms: Vault toilets are available. | Elevation: feet","location":""},{"name":"Hancock","type":"campsite","lat":44.063699,"lng":-71.5942079,"description":"Located at the western end of the scenic Kancamagus Highway, this campground serves as an excellent place to start your White Mountain adventure. The nearby Lincoln Woods Visitor C...","location":""},{"name":"Low Gap Campground","type":"campsite","lat":34.7511178,"lng":-83.7833374,"description":"LOW GAP CAMPGROUND (Campground)\n\nType: Campground | Fees: Overnight Use: | Elevation: feet","location":""},{"name":"Cherry Tree Iron Mountain Shelter","type":"campsite","lat":36.7008405,"lng":-81.5491702,"description":"The Cherry Tree Shelter was constructed right around the time that the AT moved away from its original route along Iron Mountain to the present route that passes through the Grayso...","location":""},{"name":"Boyce Shelter","type":"campsite","lat":43.9668789,"lng":-72.9478013,"description":"Shelter 3 sided Lean-to located along the Long Trail in Breadloaf Wilderness.  The Burnt Hill trail climbs easily to a junction at 0.7 miles and then turns to the left. The trail c...","location":""},{"name":"Bryant Ridge A.T. Shelter","type":"campsite","lat":37.5308407,"lng":-79.5844474,"description":"This is an Appalachain Trail shelter.\n\nType: Camping Area | Hours: Open year round, 24 hours/day | Fee: No fee required | Water: Water can be treated or filtered from nearby water ...","location":""},{"name":"Santeetlah Creek Campsites","type":"campsite","lat":35.3401608,"lng":-83.9344552,"description":"Dispersed campsites located along Santeetlah Creek.  Each campsite has a fire ring, picnic table and lantern post.  There is a fourteen day stay limit within a 30 day period at eac...","location":""},{"name":"Wagner Lake Recreation Area","type":"campsite","lat":44.5544529,"lng":-84.147505,"description":"The Wagner Lake Campground is small camping loop on Wagner Lake. The Wagner Lake is a shallow sandy bottom lake entirely surrounded by National Forest System lands. The campground ...","location":""},{"name":"Rocky Branch Shelter #1","type":"campsite","lat":44.1536421,"lng":-71.2851993,"description":"ROCKY BRANCH SHELTER #1 (Campground)\n\nType: Campground | Fee: No fee required | Elevation: feet","location":""},{"name":"Lake Delancy East","type":"campsite","lat":29.4297222,"lng":-81.7864866,"description":"Closed to the public\n\nType: Campground | Hours: Closed | Fee: No fee required | Elevation: feet","location":""},{"name":"Stonecoal Campground","type":"campsite","lat":38.6312056,"lng":-79.8802712,"description":"STONE COAL CAMPING AREA (Camping Area)\n\nType: Campground | Fee: No fee required | Elevation: feet","location":""},{"name":"Partnership A.T. Shelter","type":"campsite","lat":36.8102942,"lng":-81.4223965,"description":"This is an AT Trail Shelter off of the Sugar Grove Highway\n\nType: Camping Area | Hours: Open 24 hours/day | Fee: No fee required | Water: Water can be treated or filtered from near...","location":""},{"name":"Stuart Group Campground","type":"campsite","lat":38.9169147,"lng":-79.7690381,"description":"STUART GROUP CAMPGROUND (Group Campground)\n\nType: Group Campground | Fees: Day Use: | Elevation: feet","location":""},{"name":"Sawyer Pond Shelter & Tent Platforms","type":"campsite","lat":44.0495958,"lng":-71.3802227,"description":"SAWYER POND SHELTER & TENT PLATFORMS (Campground)\n\nType: Campground | Fee: No fee required | Elevation: feet","location":""},{"name":"North River","type":"campsite","lat":38.339452,"lng":-79.2072252,"description":"This open area campground was originally constructed as a CCC camp. Evidence of the original sites and logging trails still remain today. North River Gorge is a popular hiking, bik...","location":""},{"name":"Silver Lake","type":"campsite","lat":30.4055237,"lng":-84.4067421,"description":"SILVER LAKE (Camping Area)\n\nType: Camping Area | Fee: No fee required | Elevation: feet","location":""},{"name":"Bear Heaven Campground","type":"campsite","lat":38.9315597,"lng":-79.6805661,"description":"BEAR HEAVEN CAMPGROUND (Campground)\n\nType: Campground | Fees: Overnight Use: | Restrooms: Vault Toilet | Elevation: feet","location":""},{"name":"Snowbird Camping","type":"campsite","lat":35.2844808,"lng":-83.9040141,"description":"Dispersed campsites located along FSR75 in the Snowbird Creek drainage.  Each campsite has a fire ring, picnic table and lantern post.  There is a fourteen day stay limit within a ...","location":""},{"name":"Laurel Fork Campground","type":"campsite","lat":38.7404597,"lng":-79.6924321,"description":"LAUREL FORK CAMPGROUND (Campground)\n\nType: Campground | Fees: Overnight Use: | Elevation: feet","location":""},{"name":"Wolf Creek Lake Dispersed Campsites","type":"campsite","lat":35.2311596,"lng":-82.9914449,"description":"WOLF CREEK LAKE DISPERSED CAMPSITES (Camping Area)\n\nType: Camping Area | Fee: No fee required | Elevation: feet","location":""},{"name":"Finger Lakes Trail Shelter","type":"campsite","lat":42.4405985,"lng":-76.8111825,"description":"Adirondack style Lean-to shelter located on the Finger Lakes Trail available for camping on a first come- first served basis\n\nType: Campground | Hours: Open 24 hours/day | Fee: No ...","location":""},{"name":"Collins Cove (Raven Cliff) Horse Camp","type":"campsite","lat":36.8333405,"lng":-81.0427812,"description":"This primitive campground with easy access to the Virginia Highlands Horse Trail consists of two large grassy fields with wooden picnic tables, fire rings, and hitching rails. Hors...","location":""},{"name":"Cove Creek Group Campground","type":"campsite","lat":35.2884093,"lng":-82.799534,"description":"COVE CREEK GROUP CAMPGROUND (Group Campground)\n\nType: Group Campground | Elevation: feet","location":""},{"name":"Low Gap Camp","type":"campsite","lat":36.4406071,"lng":-82.1262037,"description":"LOW GAP CAMP (Campground)\n\nType: Campground | Fee: No fee required | Elevation: feet","location":""},{"name":"Morris Hill Group Campground","type":"campsite","lat":37.9457645,"lng":-79.9593491,"description":"Morris Hill at Lake Moomaw offers a peaceful, rustic campground. The campground offers scenic views from its perch on a ridge above the southern end of Lake Moomaw. Located just a ...","location":""},{"name":"Deep Creek Hunt Camp","type":"campsite","lat":35.4190238,"lng":-83.9169222,"description":"The Deep Creek Hunt Camp is a three-sided shelter available for free public use.  There is a picnic table and fire ring located onsite.  There is a fourteen day stay limit within a...","location":""},{"name":"Hazard Mill-Decommissioned","type":"campsite","lat":38.8316744,"lng":-78.3566694,"description":"This Site is Permanently Closed\n\nType: Campground | Fee: No fee required | Water: No water is available | Restrooms: No restroom available","location":""},{"name":"Priest A.T. Shelter","type":"campsite","lat":37.8172297,"lng":-79.0700139,"description":"This is an Appalachain Trail shelter.\n\nType: Camping Area | Hours: Open 24 hours/day | Fee: No fee required | Water: Water can be treated or filtered from nearby water sources | Re...","location":""},{"name":"Rogers Ledge Tent Site","type":"campsite","lat":44.5439475,"lng":-71.3627018,"description":"Located near the junction of the Kilkenny Ridge Trail and Mill Brook Trail, north of York Pond. There are 4 tent pads and a composting toilet.\n\nType: Camping Area | Hours: Open 24 ...","location":""},