[
  {"name": "Mather Campground", "type": "campsite", "lat": 36.0544, "lng": -112.1403, "description": "Grand Canyon South Rim - advance reservation required"},
  {"name": "Indian Garden Campground", "type": "campsite", "lat": 36.1106, "lng": -112.0628, "description": "Grand Canyon inner canyon - Havasupai tribe"},
  {"name": "Desert View Campground", "type": "campsite", "lat": 36.0456, "lng": -111.8258, "description": "Grand Canyon South Rim - seasonal"},
  {"name": "Yosemite Valley Campground", "type": "campsite", "lat": 37.7422, "lng": -119.5886, "description": "Yosemite National Park - reservation via recreation.gov"},
  {"name": "Upper Pines Campground", "type": "campsite", "lat": 37.7389, "lng": -119.5736, "description": "Yosemite Valley - year-round"},
  {"name": "Lower Pines Campground", "type": "campsite", "lat": 37.7333, "lng": -119.5667, "description": "Yosemite Valley - seasonal"},
  {"name": "Wawona Campground", "type": "campsite", "lat": 37.5389, "lng": -119.6611, "description": "Yosemite south entrance - seasonal"},
  {"name": "Camp 4", "type": "campsite", "lat": 37.7317, "lng": -119.5783, "description": "Yosemite Valley - first-come first-served"},
  {"name": "Black Rock Canyon Campground", "type": "campsite", "lat": 33.9728, "lng": -116.1397, "description": "Joshua Tree National Park"},
  {"name": "Belle Campground", "type": "campsite", "lat": 33.9528, "lng": -116.0833, "description": "Joshua Tree - first-come first-served"},
  {"name": "Hidden Valley Campground", "type": "campsite", "lat": 33.9878, "lng": -116.1639, "description": "Joshua Tree - rock climbers paradise"},
  {"name": "Sunset Campground", "type": "campsite", "lat": 33.8683, "lng": -115.8319, "description": "Joshua Tree National Park"},
  {"name": "Indian Cove Campground", "type": "campsite", "lat": 34.0878, "lng": -116.1589, "description": "Joshua Tree - first-come first-served"},
  {"name": "Canyon Overlook Campground", "type": "campsite", "lat": 36.8794, "lng": -111.5108, "description": "Glen Canyon near Page AZ"},
  {"name": "Wahweap Campground", "type": "campsite", "lat": 36.9983, "lng": -111.5036, "description": "Glen Canyon near Page AZ - near lake access"},
  {"name": "Horseshoe Bend Dispersed", "type": "campsite", "lat": 36.8797, "lng": -111.5094, "description": "Page AZ area - dispersed camping nearby"},
  {"name": "Ice Spring Dispersed Camping", "type": "campsite", "lat": 39.5658, "lng": -111.7544, "description": "Utah BLM land - Fishlake National Forest"},
  {"name": "Cathedral Valley Campground", "type": "campsite", "lat": 38.7833, "lng": -111.9, "description": "Capitol Reef National Park Utah"},
  {"name": "Echo Park Campground", "type": "campsite", "lat": 40.5078, "lng": -109.2753, "description": "Dinosaur National Monument Colorado"},
  {"name": "Browns Park Campground", "type": "campsite", "lat": 40.8758, "lng": -109.2619, "description": "Dinosaur National Monument Colorado"},
  {"name": "Sand Hollow State Park", "type": "campsite", "lat": 37.6258, "lng": -113.3956, "description": "Near Zion National Park Utah"},
  {"name": "Kolob Canyons Campground", "type": "campsite", "lat": 37.445, "lng": -113.1878, "description": "Zion National Park"},
  {"name": "Watchman Campground", "type": "campsite", "lat": 37.1989, "lng": -112.9431, "description": "Zion National Park - near visitor center"},
  {"name": "South Campground", "type": "campsite", "lat": 37.1856, "lng": -112.9331, "description": "Zion National Park - first-come first-served"},
  {"name": "Moraine Park Campground", "type": "campsite", "lat": 40.3428, "lng": -105.6833, "description": "Rocky Mountain National Park Colorado"},
  {"name": "Glacier Basin Campground", "type": "campsite", "lat": 40.3089, "lng": -105.6197, "description": "Rocky Mountain National Park"},
  {"name": "Aspenglen Campground", "type": "campsite", "lat": 40.35, "lng": -105.6667, "description": "Rocky Mountain National Park"},
  {"name": "Long Draw Campground", "type": "campsite", "lat": 40.5167, "lng": -105.75, "description": "Rocky Mountain National Park - remote"},
  {"name": "Timber Creek Campground", "type": "campsite", "lat": 40.3833, "lng": -105.85, "description": "Rocky Mountain National Park - west side"},
  {"name": "Pine Ridge Campground", "type": "campsite", "lat": 44.5833, "lng": -110.55, "description": "Grand Tetons Wyoming"},
  {"name": "Colter Bay Campground", "type": "campsite", "lat": 43.9017, "lng": -110.4667, "description": "Grand Teton National Park"},
  {"name": "Gros Ventre Campground", "type": "campsite", "lat": 43.75, "lng": -110.3833, "description": "Grand Teton National Park"},
  {"name": "Jenny Lake Campground", "type": "campsite", "lat": 43.75, "lng": -110.7167, "description": "Grand Teton National Park - prime location"},
  {"name": "Buffalo Fork Dispersed", "type": "campsite", "lat": 44.0833, "lng": -110.2833, "description": "Shoshone National Forest Wyoming"},
  {"name": "North Fork Shoshone Dispersed", "type": "campsite", "lat": 44.4833, "lng": -109.85, "description": "Shoshone National Forest Wyoming"},
  {"name": "Madison Campground", "type": "campsite", "lat": 44.6467, "lng": -110.8622, "description": "Yellowstone National Park - Madison area"},
  {"name": "Canyon Campground", "type": "campsite", "lat": 44.7333, "lng": -110.5167, "description": "Yellowstone National Park - Canyon area"},
  {"name": "Slough Creek Dispersed", "type": "campsite", "lat": 44.9667, "lng": -110.2833, "description": "Yellowstone backcountry camping"},
  {"name": "Apgar Campground", "type": "campsite", "lat": 48.5217, "lng": -114.01, "description": "Glacier National Park Montana"},
  {"name": "Rising Sun Campground", "type": "campsite", "lat": 48.7833, "lng": -113.7167, "description": "Glacier National Park - St Mary area"},
  {"name": "Many Glacier Campground", "type": "campsite", "lat": 48.8, "lng": -113.6833, "description": "Glacier National Park - Many Glacier area"},
  {"name": "Bowman Lake Campground", "type": "campsite", "lat": 48.9333, "lng": -114.2833, "description": "Glacier National Park - remote north fork"},
  {"name": "Kerr Bison Range Dispersed", "type": "campsite", "lat": 47.0333, "lng": -114.0333, "description": "BLM land near Missoula Montana"},
  {"name": "General Grant Grove Campground", "type": "campsite", "lat": 36.4867, "lng": -118.5556, "description": "Sequoia National Park California"},
  {"name": "Lodgepole Campground", "type": "campsite", "lat": 36.4333, "lng": -118.6833, "description": "Sequoia National Park California"},
  {"name": "Potwisha Campground", "type": "campsite", "lat": 36.4833, "lng": -118.8167, "description": "Sequoia National Park - Foothills"},
  {"name": "Humboldt Redwoods Campground", "type": "campsite", "lat": 40.35, "lng": -123.9833, "description": "Avenue of the Giants California"},
  {"name": "Burlington Dispersed BLM", "type": "campsite", "lat": 33.7167, "lng": -114.7167, "description": "Mojave Desert California near Joshua Tree"},
  {"name": "Mid Hills Campground", "type": "campsite", "lat": 35.0333, "lng": -115.4, "description": "Mojave National Preserve California"},
  {"name": "Hole in the Wall Campground", "type": "campsite", "lat": 35.0167, "lng": -115.5167, "description": "Mojave National Preserve"},
  {"name": "Teague Dispersed Camping", "type": "campsite", "lat": 34.7833, "lng": -118.35, "description": "Los Angeles County BLM land"},
  {"name": "Big Bend Rio Grande Village", "type": "campsite", "lat": 29.25, "lng": -103.25, "description": "Big Bend National Park Texas"},
  {"name": "Big Bend Chisos Basin", "type": "campsite", "lat": 29.2667, "lng": -103.3, "description": "Big Bend National Park Texas"},
  {"name": "Big Bend Cottonwood Campground", "type": "campsite", "lat": 29.1833, "lng": -103.15, "description": "Big Bend National Park - near Rio Grande"},
  {"name": "Davis Mountains State Park", "type": "campsite", "lat": 30.5833, "lng": -104.05, "description": "Fort Davis Texas - Davis Mountains"},
  {"name": "Long Key State Park", "type": "campsite", "lat": 24.8167, "lng": -80.8167, "description": "Florida Keys - ocean side camping"},
  {"name": "Bahia Honda State Park", "type": "campsite", "lat": 24.6667, "lng": -81.25, "description": "Florida Keys - Bridge access"},
  {"name": "Sierra Vista Dispersed BLM", "type": "campsite", "lat": 33.95, "lng": -106.95, "description": "New Mexico - near Cibola National Forest"},
  {"name": "Mogollon Rim Dispersed", "type": "campsite", "lat": 34.4167, "lng": -111.0333, "description": "Arizona - Coconino National Forest"},
  {"name": "Lost Lakes Dispersed", "type": "campsite", "lat": 47.75, "lng": -121.0833, "description": "Washington - Alpine Lakes Wilderness area"},
  {"name": "Lake Wenatchee State Park", "type": "campsite", "lat": 47.8167, "lng": -120.7167, "description": "Washington north Cascades"},
  {"name": "Elkhorn Ranch Dispersed", "type": "campsite", "lat": 45.5833, "lng": -117.8833, "description": "Oregon - Wallowa-Whitman National Forest"},
  {"name": "Starlight Campground", "type": "campsite", "lat": 41.9167, "lng": -116.9667, "description": "Oregon - Owyhee Canyonlands"},
  {"name": "Jordan Meadow Dispersed", "type": "campsite", "lat": 44.1833, "lng": -118.6333, "description": "Oregon - Malheur National Forest"},
  {"name": "Fremont Campground", "type": "campsite", "lat": 43.2833, "lng": -121.9, "description": "Oregon - Umpqua National Forest"},
  {"name": "Diamond Lake Campground", "type": "campsite", "lat": 43.3167, "lng": -122.15, "description": "Oregon - Umpqua National Forest"},
  {"name": "Mazama Campground", "type": "campsite", "lat": 42.9447, "lng": -122.1094, "description": "Crater Lake National Park Oregon"},
  {"name": "Jackson Fork Dispersed", "type": "campsite", "lat": 42.8333, "lng": -110.95, "description": "Wyoming - Bridger-Teton National Forest"},
  {"name": "Upper Hoback Dispersed", "type": "campsite", "lat": 43.3167, "lng": -110.1667, "description": "Wyoming - Bridger-Teton National Forest"}
]
