[
  {"name": "Alabama Hills Recreation Area", "type": "campsite", "lat": 36.6172, "lng": -118.1133, "description": "Bureau of Land Management, Owens Valley CA — stunning Sierra Nevada views, rock formations, free year-round dispersed camping"},
  {"name": "Horseshoe Mesa", "type": "campsite", "lat": 36.0433, "lng": -112.1386, "description": "Grand Canyon South Rim area, Coconino NF — first-come first-served, no services"},
  {"name": "Mather Campground", "type": "campsite", "lat": 36.0544, "lng": -112.1408, "description": "Grand Canyon NP — pay campground, year-round, near Mather Point"},
  {"name": "Desert View Campground", "type": "campsite", "lat": 36.0447, "lng": -111.8611, "description": "Grand Canyon NP — seasonal campground near Desert View Watchtower"},
  {"name": "Yosemite Creek Campground", "type": "campsite", "lat": 37.8947, "lng": -119.5531, "description": "Yosemite NP — remote walk-in sites along Yosemite Creek, no water"},
  {"name": "Porcupine Flat Campground", "type": "campsite", "lat": 37.8767, "lng": -119.2717, "description": "Yosemite NP — high elevation, quiet, only 10 sites, no water"},
  {"name": "Tuolumne Meadows Campground", "type": "campsite", "lat": 37.8733, "lng": -119.3567, "description": "Yosemite NP — subalpine meadow setting, 304 sites, late Jun–mid Sep"},
  {"name": "Camp 4", "type": "campsite", "lat": 37.7386, "lng": -119.5736, "description": "Yosemite Valley — walk-in climbers campground, first-come first-served"},
  {"name": "Joshua Tree Dispersed Camping", "type": "campsite", "lat": 33.8734, "lng": -115.9014, "description": " BLM land near Joshua Tree NP, CA — free, no services, stunning boulder formations"},
  {"name": "Black Rock Desert", "type": "campsite", "lat": 40.8968, "lng": -119.2067, "description": "BLM Nevada — vast open desert, Burning Man area, free dispersed camping year-round"},
  {"name": "Sierra City Dispersed", "type": "campsite", "lat": 39.5750, "lng": -120.6225, "description": "Plumas NF, CA — remote mountain camping off Hwy 49, free"},
  {"name": "Sardine Peak", "type": "campsite", "lat": 39.6222, "lng": -120.6833, "description": "Plumas NF, CA — free high-elevation dispersed camping near Sardine Peak Lookout"},
  {"name": "Lundy Lake Dispersed", "type": "campsite", "lat": 38.2667, "lng": -119.2833, "description": "Humboldt-Toiyabe NF, CA — free camping near Lundy Lake, high Sierra"},
  {"name": "Bond Springs", "type": "campsite", "lat": 33.8167, "lng": -115.3833, "description": "CHIRP, Palm Springs area, CA — free designated dispersed camping on BLM land"},
  {"name": "Canyonlands Island in the Sky", "type": "campsite", "lat": 38.9167, "lng": -109.8167, "description": "Canyonlands NP, UT — drive to Island in the Sky mesa, will Primitive road camping"},
  {"name": "Hot DCS Remote Dispersed", "type": "campsite", "lat": 38.4500, "lng": -109.5500, "description": "BLM land near Canyonlands, Moab UT — free dispersed camping, 4x4 required"},
  {"name": "San Juan Dispersed Camping", "type": "campsite", "lat": 37.6628, "lng": -109.8784, "description": "San Juan NF, UT — free dispersed camping in canyon country near the San Juan River"},
  {"name": "Fish Lake Dispersed", "type": "campsite", "lat": 38.4833, "lng": -111.5833, "description": "Fish Lake, UT — free camping on Forest Service land near Fish Lake"},
  {"name": "Capitol Reef Dispersed", "type": "campsite", "lat": 38.2000, "lng": -111.1667, "description": "Capitol Reef NP, UT — Cathedral Road designated dispersed sites, free with permit"},
  {"name": "Notom-Bullfrog Road", "type": "campsite", "lat": 37.9500, "lng": -111.1000, "description": "Capitol Reef NP, UT — 22-mile scenic road with free designated campsites"},
  {"name": "Goblin Valley", "type": "campsite", "lat": 38.8767, "lng": -109.7617, "description": "Goblin Valley SP, UT — unique mushroom rock formations, pay campground"},
  {"name": "Crater Rim", "type": "campsite", "lat": 37.5833, "lng": -112.1833, "description": "Bryce Canyon NP, UT — free primitive camping along the rim"},
  {"name": "Zion Kolob", "type": "campsite", "lat": 37.3833, "lng": -113.0500, "description": "Zion NP, UT — remote Kolob section with backcountry permits"},
  {"name": "Vermilion Cliffs", "type": "campsite", "lat": 36.8086, "lng": -112.1243, "description": "Vermilion Cliffs NM, AZ — remote, free, near the Wave. Permit required for Wave access"},
  {"name": "Gold Butte", "type": "campsite", "lat": 36.4403, "lng": -114.4613, "description": "Gold Butte NM, NV — remote desert camping, petroglyphs, free BLM land"},
  {"name": "Red Rock Canyon", "type": "campsite", "lat": 36.1345, "lng": -115.4267, "description": "Red Rock Canyon NRA, NV — designated sites near the scenic loop, free"},
  {"name": "Valley of Fire", "type": "campsite", "lat": 36.4378, "lng": -114.5139, "description": "Valley of Fire SP, NV — ancient petrified trees, rock formations, pay sites"},
  {"name": "Mojave National Preserve", "type": "campsite", "lat": 34.8819, "lng": -115.5389, "description": "Mojave NP, CA — free dispersed camping on old mining roads throughout the preserve"},
  {"name": "Algodones Dunes", "type": "campsite", "lat": 32.9379, "lng": -115.0757, "description": " BLM Imperial Dunes, CA — free camping near the Mex border, huge sand dunes"},
  {"name": "Anza-Borrego", "type": "campsite", "lat": 33.2553, "lng": -116.4000, "description": "Anza-Borrego SP, CA — desert wildflowers, free dump station, pay primitive camping"},
  {"name": "Ocotillo Wells", "type": "campsite", "lat": 33.1500, "lng": -116.1333, "description": "Bureau of Land Management, CA — free dispersed camping in the Anza-Borrego desert"},
  {"name": "Mojave Narrows", "type": "campsite", "lat": 34.7333, "lng": -117.3167, "description": "Mojave Narrows SP, CA — lakeside camping, equestrian facilities, pay sites"},
  {"name": "Dome Land Wilderness", "type": "campsite", "lat": 35.3833, "lng": -118.3000, "description": "Sequoia NF, CA — remote wilderness camping, rock scrambles, free"},
  {"name": "Kern River", "type": "campsite", "lat": 35.4833, "lng": -118.4833, "description": "Kern River, CA — free riverside camping on USFS land, kayaking"},
  {"name": "Mount Pinos", "type": "campsite", "lat": 34.8167, "lng": -119.1167, "description": "Los Padres NF, CA — dark sky area, free dispersed camping near Chula Vista"},
  {"name": "Nipomo", "type": "campsite", "lat": 35.1333, "lng": -120.4333, "description": "Los Padres NF, CA — free camping near the coast, oaks and rolling hills"},
  {"name": "Ventana Big Sur", "type": "campsite", "lat": 36.2500, "lng": -121.7167, "description": "Los Padres NF, CA — redwoods and coast, free Pine Ridge Trail backpacking"},
  {"name": "Arches NP Park", "type": "campsite", "lat": 38.7333, "lng": -109.5667, "description": "Arches NP, UT — Devils Garden primitive loop, first-come first-served"},
  {"name": "Grand County Dispersed", "type": "campsite", "lat": 38.9000, "lng": -109.7000, "description": "Grand County, UT — free camping on paved pullouts with stunning canyon views"},
  {"name": "Bog Warming Hut", "type": "campsite", "lat": 44.9833, "lng": -111.8833, "description": "Yellowstone NP, WY — remote backcountry site near West Yellowstone"},
  {"name": "Madison River", "type": "campsite", "lat": 45.3237, "lng": -111.7148, "description": "Gallatin NF, MT — free dispersed camping along the Madison River near Ennis"},
  {"name": "Bozeman Pass", "type": "campsite", "lat": 45.6770, "lng": -111.0455, "description": "Gallatin NF, MT — free primitive sites near Hwy 90, close to Bozeman"},
  {"name": "Hyalite Canyon", "type": "campsite", "lat": 45.5167, "lng": -110.9667, "description": "Gallatin NF, MT — free camping near Hyalite Reservoir, mountaineering access"},
  {"name": "Beartooth Highway", "type": "campsite", "lat": 45.0000, "lng": -109.5000, "description": "Custer Gallatin NF, MT — free pullouts near the Beartooth Pass switchbacks"},
  {"name": "Chief Joseph Pass", "type": "campsite", "lat": 44.9500, "lng": -111.6167, "description": "Beaverhead-Deerlodge NF, MT — high elevation camping near Chief Joseph Pass"},
  {"name": "Pine Creek", "type": "campsite", "lat": 44.9500, "lng": -109.8500, "description": "Custer Gallatin NF, MT — free dispersed near Pine Creek Lake in the Beartooths"},
  {"name": "Sierra Madre", "type": "campsite", "lat": 40.9167, "lng": -109.3500, "description": "Great Divide Basin, WY — remote free camping in the Continental Divide area"},
  {"name": "Rocky Mountain NP", "type": "campsite", "lat": 40.3667, "lng": -105.5500, "description": "Rocky Mountain NP, CO — multiple campgrounds, reserve at recreation.gov"},
  {"name": "Grand Lake", "type": "campsite", "lat": 40.2500, "lng": -105.8167, "description": "Arapaho Roosevelt NF, CO — Grand Lake area, first-come first-served sites"},
  {"name": "Glacier NP", "type": "campsite", "lat": 48.6833, "lng": -113.7000, "description": "Glacier NP, MT — many campgrounds, some first-come, Going-to-the-Sun Rd"},
  {"name": "Apgar", "type": "campsite", "lat": 48.5333, "lng": -114.0167, "description": "Glacier NP, MT — largest campground in the park, 24mi from West Glacier"},
  {"name": "Pine Ridge", "type": "campsite", "lat": 32.9000, "lng": -104.9833, "description": "BLM Roswell, NM — high desert camping near Carlsbad Caverns, free dispersed"},
  {"name": "Carlsbad Caverns", "type": "campsite", "lat": 32.1500, "lng": -104.5500, "description": "Carlsbad Caverns NP, NM — backcountry camping permit required"},
  {"name": "Davis Mountains", "type": "campsite", "lat": 30.2500, "lng": -104.0500, "description": "TX — remote mountain camping in the Davis Mountains, Fort Davis area"},
  {"name": "Big Bend Terlingua", "type": "campsite", "lat": 29.3167, "lng": -103.5167, "description": "Big Bend NP, TX — remote desert camping, hot springs, river runs through"},
  {"name": "Chisos Basin", "type": "campsite", "lat": 29.2500, "lng": -103.3000, "description": "Big Bend NP, TX — mountain basin campground, year-round access"},
  {"name": "Rio Grande Village", "type": "campsite", "lat": 29.1833, "lng": -102.9667, "description": "Big Bend NP, TX — river camping near the Rio Grande, hot springs nearby"},
  {"name": "Gulf Coast", "type": "campsite", "lat": 28.0500, "lng": -97.0500, "description": "TX Gulf Coast — Padre Island NS, free beach camping on the Gulf side"},
  {"name": "Padre Island", "type": "campsite", "lat": 27.3500, "lng": -97.3167, "description": "Padre Island NS, TX — 60mi of pristine beach, free primitive camping"},
  {"name": "Florida Keys", "type": "campsite", "lat": 24.7333, "lng": -80.9833, "description": "Bahia Honda SP, FL — tropical Keys camping, pay sites, stunning ocean views"},
  {"name": "Big Cypress", "type": "campsite", "lat": 25.8667, "lng": -81.0333, "description": "Big Cypress NPRES, FL — free dispersed camping in the Everglades backcountry"},
  {"name": "Ocala NF", "type": "campsite", "lat": 29.1333, "lng": -81.8667, "description": "Ocala NF, FL — free dispersed camping in the Withlacoochee area"},
  {"name": "Smoky Mountains", "type": "campsite", "lat": 35.6167, "lng": -83.4833, "description": "Great Smoky Mountains NP, TN/NC — Cades Cove, Elkmont, many first-come sites"},
  {"name": "Cades Cove", "type": "campsite", "lat": 35.6000, "lng": -83.7833, "description": "Great Smoky Mountains NP, TN — historic valley, huge campground, very popular"},
  {"name": "Blue Ridge Parkway", "type": "campsite", "lat": 35.7833, "lng": -82.0500, "description": "Blue Ridge Parkway, NC/VA — 8 campgrounds along the 469mi scenic parkway"}
]
