[{"name":"566 PINEY CREEK HC","type":"campsite","lat":31.3175055,"lng":-95.1861181,"description":"The Piney Creek Horse Trail is a system of horse trails that meanders approximately 53 miles through the East Texas pineywoods in the Davy Crockett National Forest.  Trail riding groups of more than 7...\n\nType: Horse Camp | Season: Open year-round | Fee: No fee required | Water: Yes, drinking water is available from faucets | Restroom: Vault toilet(s)","location":"566 PINEY CREEK HC"},{"name":"MEADOW SPRINGS BACKCOUNTRY CAMPSITES","type":"campsite","lat":44.6576255,"lng":-84.07726,"description":"Located on the edge of a red pine plantation, visitors to this site may see many varieties of wildlife in addition to their view of the Au Sable River. This camping area is a short .25 mile walk from ...\n\nType: Camping Area | Season: May 1 - Novermber 30 | Fee: No fee required | Water: Yes, drinking water is available from a hand pump | Restroom: Vault toilet(s)","location":"Meadow Springs Campground"},{"name":"MARZINSKI HORSE CAMPGROUND","type":"campsite","lat":44.2255639,"lng":-86.1588944,"description":"The Marzinski Trail Campground is open April 1 to December 1, annually. Reservations are required and can be made on Recreation.gov.\nThe Marzinski Horse Trail and Campground were developed for the hor...\n\nType: Horse Camp | Season: April 1 - December 1 | Fee: No fee required | Water: Yes, drinking water is available from a hand pump | Restroom: Vault toilet(s)","location":"Marzinski Horse Campground"},{"name":"CLOVER MEADOW","type":"campsite","lat":37.5277181,"lng":-119.2787247,"description":"Shaded by Lodge pole pine and Fir trees, Clover Meadow Campground is located along Clover Meadow. The campground provides picnic tables and fire rings. Access road is closed in winter and the nearby C...\n\nType: Campground | Season: June | Fee: No fee required | Water: Yes, drinking water is available from a hand pump | Restroom: Vault toilet(s)","location":"CLOVER MEADOW"},{"name":"RED BRIDGE ACCESS","type":"campsite","lat":44.2838972,"lng":-85.8616721,"description":"The name comes from an old wooden and steel bridge, painted red, that was located at the site. Now there is a modern cement structure. This site provides access to the Manistee River Trail. There is d...\n\nType: Campground | Season: April 1 - December 1 | Fee: No fee required | Water: Yes, drinking water is available from a hand pump | Restroom: Vault toilet(s)","location":"Red Bridge River Access Site"},{"name":"BOB SCOTT CAMPGROUND","type":"campsite","lat":39.4551055,"lng":-117.0011125,"description":"Generally open May to October as weather and conditions allow. Accessible from U.S. Route 50.In open setting with pinyon-juniper forest at Bob Scott Summit. Hunting for deer and elk in season. Fishing...\n\nType: Campground | Season: May | Fee: No fee required | Water: Yes, drinking water is available from faucets | Restroom: Flush toilet(s)","location":"Bob Scott Campground"},{"name":"OROFINO CAMPGROUND","type":"campsite","lat":46.2594305,"lng":-112.6088808,"description":"This campground covers 3 acres in southwest Montana and is located approximately 13 miles southeast of Deerlodge on FS Road #82. The pavilion is first come, first serve and reservations are not needed...\n\nType: Campground | Season: Late May | Fee: No fee required | Water: Yes, drinking water is available from a hand pump | Restroom: Vault toilet(s)","location":"OROFINO CAMPGROUND"},{"name":"POTOSI CAMPGROUND","type":"campsite","lat":45.5750125,"lng":-111.9102175,"description":"Potosi Campground located on the east side of the Tobacco Root Mountains with South Willow Creek running through the middle. There are 15 designated campsites, a picnic day-use area, vault toilets, an...\n\nType: Campground | Season: May - October, weather dependant | Fee: No fee required | Water: Yes, drinking water is available from a hand pump | Restroom: Vault toilet(s)","location":"POTOSI CAMPGROUND"},{"name":"MILL CREEK CAMPGROUND","type":"campsite","lat":45.4776385,"lng":-112.0691735,"description":"Mill Creek Campground is a small campground not far from Sheridan, MT with 10 designated campsites. This site has a vault toilet and water is also available. The maximum recommended trailer length for...\n\nType: Campground | Season: May - September, weather dependant | Fee: No fee required | Water: Yes, drinking water is available from a hand pump | Restroom: Vault toilet(s)","location":"MILL CREEK CAMPGROUND"},{"name":"WEST FORK FISHTRAP CREEK CAMPGROUND","type":"campsite","lat":47.8166104,"lng":-115.1492347,"description":"This is an open, sunny site along a broad, meandering stream. Streamside fishing opportunities available. Scenic.\n\nType: Campground | Season: May | Fee: No fee required | Water: Yes, drinking water is available from a hand pump | Restroom: Vault toilet(s)","location":"WEST FORK FISHTRAP CREEK CAMPGROUND"},{"name":"WILLOW CREEK","type":"campsite","lat":33.4016853,"lng":-108.5796307,"description":"WILLOW CREEK (Campground)\n\nType: Campground | Season: Year-round | Fee: No fee required | Water: Yes, seasonally | Restroom: Vault","location":"Willow Creek"},{"name":"LUZERNE HORSE TRAIL CAMPGROUND","type":"campsite","lat":44.5858418,"lng":-84.2891717,"description":"The Luzerne Horse trail Campground is a first come, first served campground along the Michigan Shore to Shore Horse Trail. With easy access to the Shore to Shore Trail, this is the perfect campground ...\n\nType: Horse Camp | Season: April 1 - November 30 | Fee: No fee required | Water: Yes, drinking water is available from a hand pump | Restroom: Vault toilet(s)","location":"Luzerne Horsetrail Campground"},{"name":"JERSEYDALE","type":"campsite","lat":37.5448851,"lng":-119.8381878,"description":"Upper loop has hitching posts for horses. Cedar, Pines, Good Shade. Campsites are on a slope, only a few sites will accommodate tents. Horses welcomed at upper campsites near the hitching posts. Pleas...\n\nType: Campground | Season: May | Fee: No fee required | Water: Yes, drinking water is available from a hand pump | Restroom: Vault toilet(s)","location":"Jerseydale"},{"name":"BOLSILLO","type":"campsite","lat":37.3151302,"lng":-119.0412333,"description":"Located along the Kaiser Pass Road near the High Sierra Ranger Station. Bosillo Creek runs adjacent to campground. There are 3 available first-come, first-serve campsites. The Corbett Lake Trail begin...\n\nType: Campground | Season: June | Fee: No fee required | Water: Yes, drinking water is available from a hand pump | Restroom: Vault toilet(s)","location":"BOLSILLO"},{"name":"FISHTRAP LAKE CAMPGROUND","type":"campsite","lat":47.8614744,"lng":-115.2028397,"description":"This is an open, sunny site with scattered trees on a flat bench above Fishtrap Lake. Non-motorized boating and lake fishing permitted. A hiking trail is available nearby. Fish Your National Forests: ...\n\nType: Campground | Season: Spring | Fee: No fee required | Water: Yes, drinking water is available from a hand pump | Restroom: Vault toilet(s)","location":"Fishtrap Lake Cg"},{"name":"SMITH LAKE","type":"campsite","lat":48.7787863,"lng":-116.2640141,"description":"Smith Lake Campground features 7 camp units, drinking water, vault toilets, a boat ramp, and a day use area with 3 picnic units.\n\nType: Campground | Season: Mid to Late June | Fee: No fee required | Water: Yes, drinking water is available from a hand pump | Restroom: Vault toilet(s)","location":"SMITH LAKE"},{"name":"ROSS CAMP","type":"campsite","lat":39.8993753,"lng":-120.1867631,"description":"Ross Campground has three rustic campsites tucked off of the beaten path. It is located next to Jamison Creek in a conifer forest of predominantly red fir trees.\n\nType: Camping Area | Fee: No fee required | Water: Yes, drinking water is available from faucets | Restroom: Vault toilet(s)","location":"Ross Camp"},{"name":"CLOUD CROSSING REC AREA","type":"campsite","lat":32.0840068,"lng":-92.9070075,"description":"This recreation complex is located along the banks of the beautiful Saline Bayou Wild & Scenic River. Recreation opportunities consist of fishing, camping, boating, hiking, and picnicking. An abundanc...\n\nType: Campground | Fee: No fee required | Water: Yes, drinking water is available from faucets | Restroom: Vault toilet(s)","location":"Cloud Crossing Rec Area"},{"name":"ROXIE PECONOM","type":"campsite","lat":40.3555013,"lng":-120.8102683,"description":"Campground located 2 miles off highway 36. There are 10 walk in sites, hand pumped water and vault toilet.\n\nType: Campground | Fee: No fee required | Water: Yes, drinking water is available from a hand pump | Restroom: Vault toilet(s)","location":"Roxie Peconom"},{"name":"TWIN SPRINGS","type":"campsite","lat":42.1572565,"lng":-120.2124325,"description":"Located 40 minutes southeast of Lakeview, Oregon, Twin Springs Campground offers three peaceful campsites at 6,300 feet elevation. Twin Springs is piped out of the rocky hillside near the center of th...\n\nType: Campground | Fee: No fee required | Water: Yes, drinking water is available from faucets | Restroom: Vault toilet(s)","location":"Twin Springs Campground"},{"name":"CLEAR SPRING","type":"campsite","lat":42.4714075,"lng":-120.7128886,"description":"Clear Springs is located southwest of Paisley, Oregon and can be reached in approximately one hour. At an elevation of about 5400 feet, this campground is situated right along Dairy Creek. There is on...\n\nType: Campground | Fee: No fee required | Water: Yes, drinking water is available from faucets | Restroom: No restroom available","location":"Clear Spring"},{"name":"CORNEY LAKE REC AREA","type":"campsite","lat":32.9050069,"lng":-92.7440075,"description":"visitors to the south shore camping area can utilize the facilities which include paved roads, lantern posts, fire rings, restrooms, ample parking, and trash receptacles. Visitors to this area can als...\n\nType: Campground | Fee: No fee required | Water: Yes, drinking water is available from faucets | Restroom: Flush toilet(s)","location":"Corney Lake Rec Area"},{"name":"REYNOLDS CREEK GROUP SITE","type":"campsite","lat":48.5572363,"lng":-116.9382442,"description":"Located near Priest Lake, this group site has a large covered gazebo, three restroom facilities, fire rings, and bear-resistant storage boxes. Reynolds Creek Group Site is located within walking dista...\n\nType: Campground | Fee: No fee required | Water: Yes, drinking water is available from a hand pump | Restroom: Vault toilet(s)","location":"Reynolds Creek Group Site"},{"name":"SHARP CREEK GROUP","type":"campsite","lat":34.3744445,"lng":-111.4427812,"description":"Sharp Creek sits at a cool 6,000 feet elevation, perfect for escaping the desert heat of southern Arizona and getting away to shaded forests and refreshing creeks and lakes. It is surrounded by a thic...\n\nType: Group Campground | Fee: No fee required | Water: Yes, drinking water is available from a hand pump | Restroom: Vault toilet(s)","location":"Sharp Creek Group"},{"name":"DOGWOOD CAMP","type":"campsite","lat":31.4920066,"lng":-93.1930075,"description":"Primitive campground located on Hwy 117 near FH 59 (Longleaf Scenic Byway). The campground has restrooms, water, trash receptacles, and area for trailers/campers.\n\nType: Campground | Fee: No fee required | Water: Yes, drinking water is available from faucets | Restroom: Flush toilet(s)","location":"Dogwood Camp"},{"name":"POWERPLANT CAMPGROUND","type":"campsite","lat":43.8140861,"lng":-115.1048828,"description":"The Power Plant Campground is near Atlanta, Idaho. A trailhead offers access to the Sawtooth Wilderness, heading northeast into a lake-filled basin. The historic mining town of Atlanta is just south o...\n\nType: Campground | Fee: No fee required | Water: Yes, drinking water is available from a hand pump | Restroom: Vault toilet(s)","location":"Powerplant Campground"},{"name":"INDIAN HENRY","type":"campsite","lat":45.1085665,"lng":-122.0759143,"description":"CLOSED DUE TO RIVERSIDE FIRE Indian Henry Campground is located in the Mount Hood National Forest, along the scenic Clackamas River. The campground is a great location for relaxation, providing access...\n\nType: Campground | Fee: No fee required | Water: Yes, drinking water is available from a hand pump | Restroom: Vault toilet(s)","location":"Indian Henry"},{"name":"KELSEY","type":"campsite","lat":39.3049337,"lng":-105.2669363,"description":"Kelsey Campground is far enough from town that there is no corner store while being close enough that the drive to and from home is part of an enjoyable getaway. Southwest of Denver at an elevation of...\n\nType: Campground | Season: May 28, 2021 | Water: Yes | Restroom: Vault toilet","location":"Kelsey Campground"},{"name":"MCDONALD FLAT CAMPGROUND","type":"campsite","lat":45.0341323,"lng":-114.2982499,"description":"5400-foot elevation. 6 campsites along Panther Creek. Fishing for wily trout in Panther Creek. 20-foot maximum trailer length.\n\nType: Campground | Fee: No fee required | Water: Yes, drinking water is available from a hand pump | Restroom: Vault toilet(s)","location":"MCDONALD FLAT CAMPGROUND"},{"name":"BOLAR MOUNTAIN VOLUNTEER VILLAGE","type":"campsite","lat":37.9841742,"lng":-79.9633365,"description":"This is a site for Volunteers on the James River and Warm Springs District to base operations out of.  The sites have water and electric and there is place to do laundry and shower.\n\nType: Campground | Fee: No fee required | Water: Yes, drinking water is available from faucets | Restroom: No restroom available","location":"Bolar Mountain Volunteer Village"},{"name":"ROBINSON FLAT","type":"campsite","lat":39.1563762,"lng":-120.5028671,"description":"Robinson Flat Campground is a remote campground under pines and firs near a beautiful meadow and stream. The campground is the last stop of the Foresthill Divide Road Driving Tour. Seven family sites ...\n\nType: Campground | Fee: No fee required | Water: Yes, drinking water is available from a hand pump | Restroom: Vault toilet(s)","location":"ROBINSON FLAT"},{"name":"JUDITH STATION CAMPGROUND","type":"campsite","lat":46.8483401,"lng":-110.2897346,"description":"Judith Station Day Use Area is located in the Helena-Lewis and Clark National Forest, adjacent to the historic Judith Guard Station. Amenities include nearby fishing access, drinking water, and a rest...\n\nType: Camping Area | Fee: No fee required | Water: Yes drinking water is generally available | Restroom: no toilets","location":"Judith Station Campground"},{"name":"BIG EIGHTMILE CAMPGROUND/TRAILHEAD","type":"campsite","lat":44.6087363,"lng":-113.5773087,"description":"10 campsites with picnic tables and fire rings on Big Eightmile Creek.\n\nType: Campground | Fee: No fee required | Water: Yes, drinking water is available from a hand pump | Restroom: Vault toilet(s)","location":"Big Eightmile Campground/Trailhead"},{"name":"MCDOUGLE","type":"campsite","lat":34.3377479,"lng":-87.3454748,"description":"McDougal Camp is a hunt camp available for primitive camping.\n\nType: Campground | Fee: No fee required | Water: Yes, drinking water is available from faucets | Restroom: Vault toilet(s)","location":"MCDOUGLE"},{"name":"HOUSTON MESA GROUP","type":"campsite","lat":34.2688781,"lng":-111.3157181,"description":"Houston Mesa Campground is located in the forested northern section of Tonto National Forest, just one mile north of Payson, Arizona and less than two hours from Phoenix.\nHouston Mesa offers shade, pr...\n\nType: Group Campground | Fee: No fee required | Water: Yes, drinking water is available from a hand pump | Restroom: Flush toilet(s)","location":"HOUSTON MESA GROUP"},{"name":"LAKE CREEK","type":"campsite","lat":48.0390897,"lng":-115.4908471,"description":"The Lake Creek Campground is located approximately 32 miles southwest of Libby off the West Fisher road. The campground has 4 sites all with tent pads, tables and fire rings and able to accommodate up...\n\nType: Campground | Fee: No fee required | Water: Yes, drinking water is available from a hand pump | Restroom: Vault toilet(s)","location":"Lake Creek"},{"name":"PONDEROSA COVE GROUP","type":"campsite","lat":38.9065252,"lng":-120.6026311,"description":"Ponderosa Cove greets group campers with shaded campsites close to scenic Stumpy Meadows Reservoir. The campground provides a pleasant destination for bird watching and nature viewing, in addition to ...\n\nType: Group Campground | Fee: No fee required | Water: Yes, drinking water is available from faucets | Restroom: Vault toilet(s)","location":"Ponderosa Cove Cg"},{"name":"DAIRY POINT","type":"campsite","lat":42.4669495,"lng":-120.6409636,"description":"Dairy Point Campground is located one hour 20 minutes south of Paisley, OR. This site borders a riparian area along Dairy Creek and has a diverse mix of ponderosa pines, willows, and grasses. This cam...\n\nType: Campground | Fee: No fee required | Water: Yes, drinking water is available from a hand pump | Restroom: Vault toilet(s)","location":"Dairy Point Campground"},{"name":"LUTHER PASS OVERFLOW CAMPGROUND","type":"campsite","lat":38.7959319,"lng":-120.0055544,"description":"Low development scale Forest Service operated campground\n\nType: Campground | Fee: No fee required | Water: Yes, drinking water is available from faucets | Restroom: Vault toilet(s)","location":"Luther Pass Overflow Campground"},{"name":"ELMWOOD","type":"campsite","lat":33.1989652,"lng":-79.4700678,"description":"This recreation area is located in the northeastern portion of the Francis Marion National Forest. It's a popular camp during deer and turkey hunts on the Waterhorn Hunt Unit. The area also serves as ...\n\nType: Group Campground | Fee: No fee required | Water: Yes, drinking water is available from a hand pump | Restroom: Vault toilet(s)","location":"Elmwood"},{"name":"SANDHILL CROSSING","type":"campsite","lat":42.5940634,"lng":-120.8808887,"description":"Located 40 minutes southwest of Paisley, OR, Sandhill Crossing campground is a remote and restful campground overlooking the North Fork of the Wild and Scenic Sprague River in a lodgepole pine and mea...\n\nType: Campground | Fee: No fee required | Water: Yes, drinking water is available from a hand pump | Restroom: Vault toilet(s)","location":"Sandhill Crossing Campground"},{"name":"LEE THOMAS CAMPGROUND","type":"campsite","lat":42.5913875,"lng":-120.8400816,"description":"Located one hour 30 minutes southwest of Paisley, Oregon, Lee Thomas Campground is located right on the banks of the North Fork of the Wild and Scenic Sprague River. Lodgepole pine trees, rock outcrop...\n\nType: Campground | Fee: No fee required | Water: Yes, drinking water is available from a hand pump | Restroom: Vault toilet(s)","location":"LEE THOMAS CAMPGROUND"},{"name":"SWIFT CREEK CAMPGROUND","type":"campsite","lat":42.7251733,"lng":-110.9065978,"description":"Seven shady campsites are nestled at the base of the Salt River Range right along the musical Swift Creek just outside Afton, Wyoming. A single faucet is available at site 1, and an accessible toilet ...\n\nType: Campground | Fee: No fee required | Water: Yes, drinking water is available from a hand pump | Restroom: Vault toilet(s)","location":"Swift Creek Cg"},{"name":"COULTER CAMPGROUND","type":"campsite","lat":46.8592066,"lng":-111.9076128,"description":"Coulter Campground offers 5boat-in campsites on the east side of Upper Holter Lake and adjacent to the Gates of the Mountains Wilderness. Approximately 1 mile north is a large day-use area (Meriwether...\n\nType: Campground | Fee: No fee required | Water: Yes, drinking water is available from a hand pump | Restroom: Vault toilet(s)","location":"Coulter Campground"},{"name":"FAIRY LAKE","type":"campsite","lat":45.9073467,"lng":-110.9630324,"description":"A campground in the Bridger Mountains on the Bozeman District.\n\nType: Campground | Fee: No fee required | Water: Yes, drinking water is available from a hand pump | Restroom: Vault toilet(s)","location":"FAIRY LAKE"},{"name":"THOMPSON RESERVOIR","type":"campsite","lat":42.9613365,"lng":-121.0925417,"description":"Located 20 minutes south of Silver Lake, Oregon, Thompson Reservoir Campground is a desirable camping area located on the western shores of Thompson Reservoir. Enjoy gorgeous views of Hager Mountain a...\n\nType: Campground | Fee: No fee required | Water: Yes, drinking water is available from a hand pump | Restroom: Vault toilet(s)","location":"THOMPSON"},{"name":"GOUMAZ","type":"campsite","lat":40.4132363,"lng":-120.8616233,"description":"Goumaz campground is between Highway 36 and 44 at the South end of Eagle Lake. There are 5 campsites located along Susan River and adjacent to the Bizz Johnson Trail. This is a great place to start a ...\n\nType: Campground | Fee: No fee required | Water: Yes, drinking water is available from faucets | Restroom: Vault toilet(s)","location":"Goumaz"},{"name":"CIMARRON","type":"campsite","lat":37.1354798,"lng":-101.8240286,"description":"Located in the Cimarron Recreation Area and surrounded by tall cottonwood trees, this scenic campground has 12 campsites. A great variety of birds provide excellent wildlife viewing opportunities.  Th...\n\nType: Campground | Season: Open Year Round | Fee: Overnight Use: | Water: Yes, drinking water is available from faucets | Restroom: Vault toilet(s)","location":"Cimarron Campground"},{"name":"COTTONWOOD - TON","type":"campsite","lat":48.587106,"lng":-119.7634147,"description":"Closed for Camping.     Day use only.     Potable water available\n\nType: Campground | Fee: No fee required | Water: Yes, drinking water is available from faucets | Restroom: No restroom available","location":"Cottonwood Cg - Ton"},{"name":"FARLES PRAIRIE HUNT CAMP","type":"campsite","lat":29.1033888,"lng":-81.6743199,"description":"FARLES PRAIRIE HUNT CAMP\n\nType: Campground | Fee: No fee required | Water: Yes, drinking water is available from a hand pump | Restroom: Vault toilet(s)","location":"FARLES PRAIRIE HUNT CAMP"},{"name":"SUTTON BLUFF","type":"campsite","lat":37.4757509,"lng":-91.0067043,"description":"Roomy campsites surrounded by open lawn and natural shading, cool breezes, abundant songbirds, and scenic views all await visitors at the Sutton Bluff Recreation Area. The Sutton Bluff Campground is s...\n\nType: Campground | Fee: No fee required | Water: Yes, drinking water is available from faucets | Restroom: Vault toilet(s)","location":"Sutton Bluff"},{"name":"PACIFIC VALLEY","type":"campsite","lat":38.5142132,"lng":-119.9011279,"description":"Developed campground in meadow and forest, adjacent to Pacific Creek and near Mokelumne River and Mosquito Lakes. Please practice Leave No Trace and Pack it in, Pack it out principles.\n\nType: Campground | Fee: No fee required | Water: Yes, drinking water is available from a hand pump | Restroom: Vault toilet(s)","location":"Pacific Valley"},{"name":"CAMP 32","type":"campsite","lat":48.8364898,"lng":-115.1912305,"description":"The Camp 32 campground is located 15 miles southwest of Eureka off Pinkham Creek road 7182. The campground 8 sites with tables, fire rings. Accommodating up to a 20' rd. Amenities include potable wate...\n\nType: Campground | Fee: No fee required | Water: Yes, drinking water is available from a hand pump | Restroom: Vault toilet(s)","location":"CAMP 32"},{"name":"HAWLEY CREEK LOWER CAMPGROUND","type":"campsite","lat":44.6677423,"lng":-113.1906516,"description":"The lower campground has 4 sites and has no potable water. Fishing in Hawley Creek, and in the reservoir. The Hawley Creek Trail is less than 2 miles long, but is rather difficult, gaining over 1000 f...\n\nType: Campground | Fee: No fee required | Water: Yes, drinking water is available from a hand pump | Restroom: Vault toilet(s)","location":"Hawley Creek, Lower"},{"name":"HOLLAND LAKE GROUP SITE","type":"campsite","lat":47.4423865,"lng":-113.6171033,"description":"The Holland Lake Picnic Site offers plenty of parking, trash receptacles, restrooms, water supply, and several picnic sites with tables and grills. This site also has a swimming area, but no lifeguard...\n\nType: Group Campground | Fee: No fee required | Water: Yes, drinking water is available from a hand pump | Restroom: Vault toilet(s)","location":"Holland Lake Group Site"},{"name":"BOGARD","type":"campsite","lat":40.3574981,"lng":-121.0981353,"description":"Quiet and tucked away from the beaten path. Pine creek adjacent to campground, beautiful aspens in and around campground. Located 1.75 miles off Highway 44. No Fees. 10 sites. Hand pumped water. Vault...\n\nType: Campground | Fee: No fee required | Water: Yes, drinking water is available from a hand pump | Restroom: Vault toilet(s)","location":"BOGARD"},{"name":"IRON CITY","type":"campsite","lat":38.7084444,"lng":-106.3356407,"description":"Iron City Campground is located within the Chalk Creek Canyon, which is one of the valley's most popular areas, offering access to many ATV trails. This is a small campground with 15 campsites. It is ...\n\nType: Campground | Season: May 20, 202 | Water: Yes | Restroom: Vault toilet is available only during peak season","location":"Iron City Campground"},{"name":"LYNX CREEK CAMPGROUND","type":"campsite","lat":43.0971024,"lng":-110.8459759,"description":"Lynx Creek is located 11 miles from the north end of the Greys River Road. No water is available, and visitors are asked to Pack Out whatever is Packed In. A vault toilet is provided and private famil...\n\nType: Campground | Fee: No fee required | Water: Yes, drinking water is available from a hand pump | Restroom: Vault toilet(s)","location":"Lynx Creek Picnic Area"},{"name":"BAKER LAKE RUSTIC CAMPGROUND","type":"campsite","lat":47.8444833,"lng":-90.8170764,"description":"Baker Lake Rustic Campground is a 5 site campground located in a stand of red pine on the shore of Baker Lake.  Unlike most other rustic campgrounds, there is a solar powered faucet for drinking water...\n\nType: Campground | Fee: No fee required | Water: Yes, drinking water is available from faucets | Restroom: Vault toilet(s)","location":"BAKER LAKE RUSTIC CAMPGROUND"},{"name":"WOOD LAKE CAMPGROUND","type":"campsite","lat":30.0266774,"lng":-84.5650301,"description":"6 site campground on the lower Ochlockonee\n\nType: Campground | Fee: No fee required | Water: Yes, drinking water is available from faucets | Restroom: Vault toilet(s)","location":"WOOD LAKE CAMPGROUND"},{"name":"TURNEY GULCH GROUP CAMPGROUND","type":"campsite","lat":34.1739997,"lng":-112.2880507,"description":"Located seven miles southeast of Crown King, Arizona.  This group site is situated close to Horsethief lake. Popular activities include boating, fishing, hiking, and visiting the Castle Creek Wilderne...\n\nType: Group Campground | Fee: No fee required | Water: Yes, drinking water is available from a hand pump | Restroom: Vault toilet(s)","location":"Turney Gulch Group Campground"},{"name":"FLAT ROCKS CG","type":"campsite","lat":39.3274918,"lng":-105.092215,"description":"Hidden in the Rampart Range, Flat Rocks is an ideal campground for ATV and motorcycle riders in the Rampart Range Recreation Area. ATVs and off-road motorcycles are allowed to enter and depart the cam...\n\nType: Campground | Season: May 28, 2021 | Water: Yes | Restroom: Vault toilets","location":"Flat Rocks Campground"},{"name":"LAZY BEND","type":"campsite","lat":45.1903745,"lng":-122.2076033,"description":"CLOSED DUE TO RIVERSIDE FIRE Lazy Bend Campground sits next to the Wild and Scenic Clackamas River, close to the city of Estacada. The adjacent river provides opportunities for rafting, kayaking, fish...\n\nType: Campground | Fee: No fee required | Water: Yes, drinking water is available from a hand pump | Restroom: Yes","location":"Lazy Bend"},{"name":"DELTA CAMPGROUND","type":"campsite","lat":44.1631054,"lng":-122.2764142,"description":"Closed indefinitely due to the Holiday Farm Fire.\n\nType: Campground | Fee: No fee required | Water: Yes, hand pumps | Restroom: Vault toilets","location":"DELTA CAMPGROUND"},{"name":"CAMP 4 1/2","type":"campsite","lat":36.8624051,"lng":-119.1218326,"description":"Camp Four and a Half Cabin is located along the Kings River at an elevation of 1,100 feet. This historic cabin sits within the Sequoia National Monument, about 60 miles east of Fresno, California. In ...\n\nType: Campground | Fee: No fee required | Water: Yes, drinking water is available from faucets | Restroom: Flush toilet(s)","location":"CAMP 4 1/2"},{"name":"LONE ROCK","type":"campsite","lat":39.2532021,"lng":-105.2362658,"description":"Lone Rock Campground is located on the South Platte River at an elevation of 6,479 ft. The campground boasts gold medal waters and views of the river.This campground is very popular and crowded during...\n\nType: Campground | Season: May 29, 2021 | Water: Yes, available during peak season only. | Restroom: Vault toilets","location":"Lone Rock Campground"},{"name":"PALISADE/GLACIER GROUP CG","type":"campsite","lat":37.1286372,"lng":-118.4226005,"description":"Clyde Glacier group campsite can accommodate up to 25 people. Palisade Glacier group campsite is tent only and can accommodate 20 people. These group sites are close to Upper Sage Flat family campgrou...\n\nType: Group Campground | Fee: No fee required | Water: Yes, drinking water is available from a hand pump | Restroom: Vault toilet(s)","location":"Palisade Glacier Group Campground"},{"name":"YUBA PASS","type":"campsite","lat":39.6159322,"lng":-120.4907061,"description":"Yuba Pass Campground is located in the North Yuba River area, atop Yuba Pass on Highway 49. Visitors enjoy a wide variety of recreational activities in the area, including birding, hiking, biking, hun...\n\nType: Campground | Fee: No fee required | Water: Yes, drinking water is available from faucets | Restroom: Vault toilet(s)","location":"YUBA PASS"},{"name":"MUD CREEK","type":"campsite","lat":42.2832945,"lng":-120.2086975,"description":"Located 35 minutes northeast of Lakeview, Oregon, Mud Creek campground is a quiet campground with seven spacious sites among ponderosa and lodgepole pines, as well as some aspens and cottonwood trees....\n\nType: Campground | Fee: No fee required | Water: Yes, drinking water is available from a hand pump | Restroom: Vault toilet(s)","location":"MUD CREEK"},{"name":"VANDERIET MEMORIAL PILOTS CG","type":"campsite","lat":47.4755622,"lng":-112.866402,"description":"Located 30 miles west of Augusta, Van Deriet offers 6 sites with a variety of amenities close to the airport. There is no vehicle access and is not handicapped accessible. This site is maintained with...\n\nType: Campground | Fee: No fee required | Water: Yes, drinking water is available from a hand pump | Restroom: Vault toilet(s)","location":"Vanderiet Memorial Pilots Cg"},{"name":"OWL CREEK PACKER CAMP","type":"campsite","lat":47.44018,"lng":-113.6087272,"description":"This trailhead is located across the road from the Owl Creek Packer Camp. This trailhead accesses Trail #35, which goes around the south side of Holland Lake and leads to Upper Holland Lake, and ultim...\n\nType: Horse Camp | Fee: No fee required | Water: Yes, drinking water is available from a hand pump | Restroom: Vault toilet(s)","location":"Owl Creek Packer Camp"},{"name":"WALNUT FLATS","type":"campsite","lat":37.1980629,"lng":-80.8863923,"description":"This small, primitive campground is well suited for tent camping but also accommodates small recreation vehicles. It has shaded sites clustered around a grassy opening surrounded by forest. Flat Top M...\n\nType: Campground | Fee: No fee required | Water: Yes, drinking water is available from faucets | Restroom: Vault toilet(s)","location":"Walnut Flats"},{"name":"PARADISE CAMPGROUND","type":"campsite","lat":45.8608396,"lng":-114.7377909,"description":"Paradise Campground is located near the Paradise Boating Site which is one of the most popular launching sites on the Selway River. The campground consists of 11 sites complete with picnic tables, and...\n\nType: Campground | Fee: No fee required | Water: Yes drinking water is generally available | Restroom: Vault Toilet(s)","location":"PARADISE CAMPGROUND"},{"name":"HAWLEY CREEK UPPER CAMPGROUND","type":"campsite","lat":44.6720433,"lng":-113.1806726,"description":"The upper campground has 6 campsites with picnic tables and fire rings, and also has vault toilets but no potable water. Fishing nearby in Hawley Creek, and in the reservoir. The Hawley Creek Trail is...\n\nType: Campground | Fee: No fee required | Water: Yes, drinking water is available from a hand pump | Restroom: Vault toilet(s)","location":"HAWLEY CREEK UPPER CAMPGROUND"},{"name":"INDIAN CREEK","type":"campsite","lat":39.3800599,"lng":-105.099121,"description":"This campground has 11 campsites at an elevation of 7,500 ft. with parking spurs between 16-30 ft. in length.All dates are weather dependent. Dates of operation below are dates visitors may expect ful...\n\nType: Campground | Season: May 28, 2021 | Water: Yes | Restroom: Vault toilet","location":"Indian Creek Campground"},{"name":"MCGEE BACKPACKER CG","type":"campsite","lat":37.5506052,"lng":-118.8028126,"description":"This 28 unit campground provides an excellent \"close-to-the-trailhead\" location to camp as a jumping off point for adventures in the McGee Canyon area or as a pleasant sunny location for family campin...\n\nType: Campground | Fee: No fee required | Water: Yes, drinking water is available from a hand pump | Restroom: Vault toilet(s)","location":"MCGEE BACKPACKER CG"},{"name":"LYNX CAMPGROUND","type":"campsite","lat":34.5166508,"lng":-112.3880121,"description":"Located in the Lynx Lake Recreation Area. Lynx Lake is one of the most popular recreation spots in central Arizona on the Bradshaw Ranger District. More than 90,000 people visit each year! Mild weathe...\n\nType: Campground | Season: April 1 - Oct 31 | Fee: Overnight Use: | Water: Yes, drinking water is available from faucets | Restroom: Vault toilet(s)","location":"Lynx Campground"},{"name":"PONDEROSA GROUP","type":"campsite","lat":34.2945333,"lng":-111.1132189,"description":"Ponderosa pine trees surround and tower over open-space campgrounds, providing cool shade and gorgeous vistas. Most visitors enjoy taking advantage of the area's hiking trails and lakes, traveling to ...\n\nType: Group Campground | Fee: No fee required | Water: Yes, drinking water is available from a hand pump | Restroom: Vault toilet(s)","location":"PONDEROSA GROUP"},{"name":"SPRING CREEK CAMP AREA","type":"campsite","lat":44.7844265,"lng":-111.2754822,"description":"A campground by Hebgen Lake on the Hebgen Lake District.\n\nType: Campground | Fee: No fee required | Water: Yes, drinking water is available from a hand pump | Restroom: Vault toilet(s)","location":"Spring Creek Camp Area"},{"name":"RYAN PARK","type":"campsite","lat":41.3257065,"lng":-106.4925107,"description":"Ryan Park Campground is located at 8,009 ft elevation on the Snowy Range Scenic Byway near Saratoga, Wyoming. The campground is next to Barrett Creek in the Medicine Bow National Forest and features 4...\n\nType: Campground | Season: June | Fee: Overnight Use: | Water: Yes | Restroom: Yes","location":"Ryan Park Campground"},{"name":"ROARING RIVER","type":"campsite","lat":45.1571865,"lng":-122.1141833,"description":"CLOSED DUE TO RIVERSIDE FIRE Roaring River Campground is located across from the Wild and Scenic Clackamas River in the Cascade Range. The small, rustic campground has charm and provides visitors with...\n\nType: Campground | Fee: No fee required | Water: Yes, drinking water is available from a hand pump | Restroom: Yes","location":"Roaring River"},{"name":"BLUE MOUNTAIN","type":"campsite","lat":38.9600499,"lng":-105.3610335,"description":"Blue Mountain Campground is located 1.5 miles S of Lake George off CR96 and CR61.  It has 21 campsites with parking spurs 16-40 feet and a maximum trailer length of 25 feet  elevation is 8,200 feet  c...\n\nType: Campground | Season: May 20, 2021 | Fee: Overnight Use: | Water: Yes, drinking water is available from a hand pump | Restroom: Vault toilet(s)","location":"Blue Mountain Campground"},{"name":"BEAVER CG","type":"campsite","lat":45.8566356,"lng":-121.9568044,"description":"Among large old maple and cottonwood trees, this campground offers a quiet family camping experience. The campground is located along the Wind River with access to fishing, hiking, biking and picnicki...\n\nType: Campground | Season: 44687 | Fee: Overnight Use: | Water: Yes, drinking water is available from a hand pump | Restroom: Flush toilet(s)","location":"Beaver Cg"},{"name":"OKLAHOMA CG","type":"campsite","lat":45.8695856,"lng":-121.6279844,"description":"Oklahoma Campground is located on the Little White Salmon River. The campground is fairly flat, partly wooded with some open meadow. The large sites make it a favorite of smaller groups who don 't qui...\n\nType: Campground | Season: 46143 | Fee: Overnight Use: | Water: Yes, drinking water is available from a hand pump | Restroom: Vault toilet(s)","location":"Oklahoma Cg"},{"name":"KINGSTON CAMPGROUND","type":"campsite","lat":39.2229055,"lng":-117.1432125,"description":"Generally, open May to October as weather and conditions allow. Northern most entry point to Toiyabe Crest tiol Recreation Trail by the Kingston Trailhead. Stock loading ramp available for horses or o...\n\nType: Campground | Season: May | Fee: No fee required | Water: No water is available | Restroom: Vault toilet(s)","location":"KINGSTON CAMPGROUND"},{"name":"KINGSTON","type":"campsite","lat":32.9185386,"lng":-107.7010904,"description":"KINGSTON CAMPGROUND (Campground)\n\nType: Campground | Season: Year-round | Fee: No fee required | Water: No | Restroom: Vault toilet","location":"Kingston Campground"},{"name":"PRICE CREEK CAMPGROUND","type":"campsite","lat":44.6365964,"lng":-112.1571724,"description":"Nestled along the Pioneer Mountain Scenic Byway of southwest Montana, Price Creek Campground provides many recreational opportunities for any outdoor enthusiast! It is part of the Dillon Ranger Distri...\n\nType: Campground | Season: June through November depending on snow conditions | Fee: Overnight Use: | Water: Yes, drinking water is available from a hand pump | Restroom: Vault toilet(s)","location":"Price Creek Campground"},{"name":"BLACKWELL CAMPGROUND","type":"campsite","lat":39.0168484,"lng":-86.3897466,"description":"Blackwell Campground has long been a popular destination and overnight camping area for equestrians. Other campers are also welcome although the facilities are geared to provide for horses. Vault toil...\n\nType: Campground | Season: Year-round | Fee: No fee required | Water: Potable water available | Restroom: Vault toilets available","location":"Blackwell Campground"},{"name":"BIG LARCH CAMPGROUND COMPLEX","type":"campsite","lat":47.1847225,"lng":-113.4938132,"description":"This campground is located on the east shoreline of Seeley Lake. A great place to cool off on a hot day, it has a beach and a boat launch as well as shade if you just want to lie around the campsite. ...\n\nType: Campground | Season: Spring | Fee: Overnight Use: | Water: Yes, drinking water is available from a hand pump | Restroom: Vault toilet(s)","location":"Big Larch Cg Complex"},{"name":"MABEL LAKE","type":"campsite","lat":47.0498382,"lng":-94.0719103,"description":"MABEL LAKE (Campground)\n\nType: Campground | Season: 05/23/2026009/21/2026 | Fee: Overnight Use: | Water: Yes, drinking water is available a hand pump | Restroom: Vault Toilet","location":"Mabel Lake"},{"name":"BLACK CANYON RIM CG","type":"campsite","lat":34.3048997,"lng":-110.7433608,"description":"Black Canyon Rim Campground, set among towering ponderosa pine,isa favorite stopping place for those traveling on the General Crook National Recreation Trail. Fishing and boating opportunities are pop...\n\nType: Campground | Season: May 1 - Columbus Day Weekend Annually | Fee: Overnight Use: | Water: Yes | Restroom: Vault Toilet","location":"Black Canyon Rim Cg"},{"name":"FISH CREEK","type":"campsite","lat":36.0668185,"lng":-118.2174556,"description":"54 miles northeast of Kernville via Mtn. 99 and Sherman Pass Rd. (22S05), or 32 miles west of Hwy. 395 via Nine Mile Canyon Rd. (J41). Paved roads; 40 units including 12 suitable for RV 's up to 24 ';...\n\nType: Campground | Season: May | Fee: Overnight Use: | Water: Yes, drinking water is available from faucets | Restroom: Vault toilet(s)","location":"FISH CREEK"},{"name":"CHEVELON CANYON LAKE CG","type":"campsite","lat":34.509397,"lng":-110.8409498,"description":"The campground is located on the ridge above Chevelon Canyon Lake in a mixture of ponderosa pine, juniper and pinyon pine.Chevelon Canyon Lake offers spectacular views and opportunities for hiking and...\n\nType: Campground | Season: January - December | Fee: No fee required | Water: No | Restroom: Vault Toilet","location":"Chevelon Canyon Lake Cg"},{"name":"NORTON CAMPGROUND","type":"campsite","lat":46.5894245,"lng":-113.6700691,"description":"Located in the Rock Creek drainage, this campground is adjacent to Rock Creek, situated amongst ponderosa pine and Douglas-fir trees. This area is known for its blue ribbon trout stream and rugged can...\n\nType: Campground | Season: Early May | Fee: Overnight Use: | Water: Yes, drinking water is available from a hand pump | Restroom: Vault toilet(s)","location":"Norton Cg"},{"name":"BOG SPRINGS","type":"campsite","lat":31.7272272,"lng":-110.8761218,"description":"Bog Springs offers some exceptional scenery, either right from your campsite or a short walk away. Many visitors unfamiliar with Arizona will be surprised by the high grasslands that climb the slopes ...\n\nType: Campground | Season: Year-round | Fee: Overnight Use: | Water: Yes, drinking water is available from a hand pump | Restroom: Vault toilet(s)","location":"Bog Springs"},{"name":"HUNTER CREEK CG","type":"campsite","lat":43.423939,"lng":-115.1321828,"description":"Located 20 miles northwest of Fairfield through Cow Creek Reservoir on Road No. 055, the campground offers 3 single camping units, and 1 multi-family unit.  Corrals, mangers and barrier free stock loa...\n\nType: Campground | Season: May 30 - October 31 | Fee: No fee required | Water: No water is available | Restroom: Vault toilet(s)","location":"HUNTER CREEK CG"},{"name":"HARTLEY SPRINGS CG","type":"campsite","lat":37.7717052,"lng":-119.0373127,"description":"Located between June Mountain and Obsidian Dome, at an Elevation of 8400 feet, this campground has 25 campsites surrounded by pine forest with nearby access to the tributaries of the headwaters of Owe...\n\nType: Campground | Season: Mid- May | Fee: No fee required | Water: No water is available | Restroom: Vault toilet(s)","location":"Hartley Springs Campground"},{"name":"HEMLOCK RECREATION AREA","type":"campsite","lat":44.2325084,"lng":-85.5038942,"description":"This campground is located on the west end of Lake Mitchell near Cadillac. The lake is 1,600 acres and nearly surrounded by residences. The west end of the lake is marshy and good for wildlife viewing...\n\nType: Campground | Season: May 2 - September 8 | Fee: Overnight Use: | Water: Yes, drinking water is available from a hand pump | Restroom: Vault toilet(s)","location":"Hemlock Recreation Area"},{"name":"DEER PARK","type":"campsite","lat":44.244018,"lng":-107.2234135,"description":"Deer Park Campground is conveniently located near access to the many trails in the Cloud Peak Wilderness.\n\nType: Campground | Season: Memorial Day - Labor Day (weather dependent) | Fee: Overnight Use: | Water: Yes, drinking water is available from a hand pump. | Restroom: Vault toilet(s)","location":"Deer Park Campground"},{"name":"BIG MEADOW CAMPGROUND","type":"campsite","lat":36.7205023,"lng":-118.8200727,"description":"This campground, at an elevation of 7,500 feet. There are 30 single units and eight double units. Natural Features: An open meadow that is surrounded by a variety of pines, including Lodgepole pines, ...\n\nType: Campground | Season: When snow melts in spring. Usually mid to late June | Fee: No fee required | Water: No water is available | Restroom: Vault toilet(s)","location":"Big Meadow Campground"},{"name":"ALMANOR","type":"campsite","lat":40.2177422,"lng":-121.1760843,"description":"Almanor Campground is a large family-friendly facility for individuals and large groups alike. It provides direct access to beautiful Lake Almanor and a variety of recreational opportunities in the ar...\n\nType: Campground | Season: May-October | Fee: Overnight Use: | Water: Yes, drinking water is available from faucets | Restroom: New Vault toilets, flush toilets in A. South","location":"Almanor North and South Campgrounds"},{"name":"SOUTH PIKE BAY RECREATION AREA","type":"campsite","lat":47.3295272,"lng":-94.5876805,"description":"South Pike Bay Campground is located on the south shore of beautiful Pike Bay, on Cass Lake in north central Minnesota. Visitors enjoy the area for its excellent boating, canoeing and fishing opportun...\n\nType: Campground | Season: 05/23/2026-09/21/2026 | Fee: Overnight Use: | Water: Yes, drinking water is available a hand pump | Restroom: Vault Toilet","location":"South Pike Bay"},{"name":"PETERS CREEK CAMPGROUND","type":"campsite","lat":48.0570621,"lng":-113.6442078,"description":"This is a free campground located 42 miles south of the town of Hungry Horse on the gravel East Side Reservoir Road #38. The campground is located at an elevation of 3,600 feet and is maintained from ...\n\nType: Campground | Season: 44696 | Fee: No fee required | Water: No, drinking water is not provided | Restroom: vault toilet","location":"Peter'S Creek Campground"},{"name":"HOLE IN THE GROUND","type":"campsite","lat":40.3110092,"lng":-121.5657724,"description":"True to its name, Hole-in-the-Ground is tucked away in a steep, tree-covered draw alongside Mill Creek. A developed campground with 13 designated sites, you can really escape it all at HITG!  Campfire...\n\nType: Campground | Season: Summer | Fee: Overnight Use: | Water: Yes, drinking water is available from a hand pump | Restroom: Vault toilet(s)","location":"HOLE IN THE GROUND"},{"name":"TAMARACK POINT","type":"campsite","lat":47.4439593,"lng":-94.1207744,"description":"TAMARACK POINT (Campground)\n\nType: Campground | Fee: No fee required | Water: Yes, drinking water is available from faucets","location":"Tamarack Point"},{"name":"TILLIE CREEK#2","type":"campsite","lat":35.6971442,"lng":-118.4586817,"description":"Tillie Creek Group site #2 offers group camping near Lake Isabella. Picnic tables, fire rings, playground, water, and bathrooms available in the Campground. Accommodates 1-80 people on site. All devel...\n\nType: Group Campground | Season: April | Fee: Overnight Use: | Water: Yes, drinking water is available from a hand pump | Restroom: Vault toilet(s)","location":"TILLIE CREEK#2"},{"name":"SANDY FLAT","type":"campsite","lat":35.5827217,"lng":-118.5245962,"description":"Sandy Flat Campground offers35 family campsites along the lower Kern River south west from Lake Isabella. Includes 6 walk-in sites, water, and bathrooms. All developed campground areas on the Forest o...\n\nType: Campground | Season: April | Fee: Overnight Use: | Water: Yes, drinking water is available from a hand pump | Restroom: Vault toilet(s)","location":"SANDY FLAT"},{"name":"STRAIGHT CREEK PACKER CORRALS","type":"campsite","lat":47.4972288,"lng":-112.888902,"description":"Horse Campground. Outfitter reserved sites not available for public use.\n\nType: Horse Camp | Season: 05/26-11/30 | Water: Yes, drinking water is available from a hand pump | Restroom: Vault toilet(s)","location":"Straight Creek Packer Corrals"},{"name":"PLEASANT VALLEY","type":"campsite","lat":48.0420064,"lng":-115.2910137,"description":"The Pleasant Valley Campground is located approximately 32 miles southwest of Libby on Highway 2. The campground has 7 sites tables and fire rings and able to accommodate up to a 32' rd. There is also...\n\nType: Campground | Season: All Year | Fee: No fee required | Water: No water is available | Restroom: Vault toilet(s)","location":"Pleasant Valley"},{"name":"JUNIPER FLATS GROUP CAMPSITE","type":"campsite","lat":46.4866897,"lng":-86.685603,"description":"Grand Island, a Congressionally designated National Recreation Area (NRA), boasts massive 300-foot wave-cut sandstone cliffs; 13,500 acres of lush forest; beaches of fine sand; winter ice caves; and h...\n\nType: Group Campground | Season: Friday before Memorial Day | Fee: Overnight Use: | Water: Yes, drinking water is available from faucets | Restroom: Vault toilet(s)","location":"Juniper Flats"},{"name":"WHITE SPAR CAMPGROUND","type":"campsite","lat":34.5085461,"lng":-112.4764732,"description":"White Spar Campground at 5,641 feet in elevation is a short drive of 2.7 miles south of downtown Prescott and east of Hwy 89. Campers will appreciate the mild weather and the cool ponderosa pine fores...\n\nType: Campground | Season: Year-round | Fee: Overnight Use: | Water: Yes, drinking water is available from a hand pump | Restroom: Vault toilet(s)","location":"White Spar Campground"},{"name":"BLAIR FLATS","type":"campsite","lat":47.8626565,"lng":-113.8413034,"description":"Three campsites along the Swan River with fire rings. One bear box and a vault toilet. Walk down access to the river.\n\nType: Camping Area | Season: Year round, snow dependent | Fee: No fee required | Water: No potable water | Restroom: Vault toilet","location":"Blair Flats"},{"name":"MURRAY BAY GROUP CAMPSITE","type":"campsite","lat":46.4719157,"lng":-86.65478,"description":"Grand Island is a Congressionally designated National Recreation Area with fascinating history, beautiful overlooks, pristine sandy beaches, dense hardwood forest, serene inland lakes, and miles of hi...\n\nType: Group Campground | Season: Friday before Memorial Day | Fee: Overnight Use: | Water: Yes, drinking water is available from faucets | Restroom: Vault toilet(s)","location":"MURRAY BAY GROUP CAMPSITE"},{"name":"BOISE CREEK","type":"campsite","lat":40.9445077,"lng":-123.6579657,"description":"Boise Creek Campground is located in a lovely forest setting that includes large Pacific madrone, Douglas-fir, and California bay trees. The campground is located2 miles east from the town of Willow C...\n\nType: Campground | Season: 44702 | Fee: Day Use: | Water: Yes. | Restroom: Vault toilets.","location":"BOISE CREEK"},{"name":"RESERVOIR C","type":"campsite","lat":41.6602832,"lng":-120.7739024,"description":"Close to the boat ramp and right on the water, campsites at Reservoir C are quiet, scenic and partly shady.A recommended spot for Amateur Astronomers. Light polution is non-existant.\n\nType: Campground | Season: Facilities open as weather permits; usually mid-May to late October. | Fee: No fee required | Water: None | Restroom: Vault Toilet","location":"RESERVOIR C"},{"name":"YAVAPAI CAMPGROUND","type":"campsite","lat":34.6024424,"lng":-112.5405035,"description":"This 22-site campground is located in the Granite Basin Recreation Area amidst granite boulders inmixed pinyon-juniper and ponderosa pines. It is convenient to Granite Basin Lake, Granite Mountain Wil...\n\nType: Campground | Season: Year-round | Fee: Overnight Use: | Water: Yes, drinking water is available from a hand pump | Restroom: Vault toilet(s)","location":"Yavapai Camp Ground"},{"name":"GRAVEL FLAT","type":"campsite","lat":36.8646751,"lng":-119.1133669,"description":"The campground is located along the north side of the Kings River on a large sandy flat area. There is no shade so it is very hot during the summer months, but is a great place for camping in the spri...\n\nType: Camping Area | Season: Open year round | Fee: No fee required | Restroom: Vault Toilet is handicap accessible","location":"GRAVEL FLAT"},{"name":"JOSEPHINE CREEK CAMP","type":"campsite","lat":42.2420052,"lng":-123.686014,"description":"A rustic setting above Josephine Creek and the Illinois River. ; Facilities: 6 campsites with picnic tables and fire pits, no drinking water, vault toilet, no trash service - Please pack it out.\n\nType: Campground | Season: 43917 | Fee: No fee required | Water: No drinking water is available | Restroom: Vault toilet(s)","location":"Josephine Creek Camp"},{"name":"ALMANOR LEGACY CAMPGROUND","type":"campsite","lat":40.2174062,"lng":-121.1854153,"description":"Almanor Legacy is a developed campground about a mile from beautiful Lake Almanor. This campground features 13 single RV sites, and 1 double site. Each site is eqquipped with water and electrical hook...\n\nType: Campground | Season: Spring-Fall | Fee: Overnight Use: | Water: Yes, drinking water is available from faucets | Restroom: Vault toilet(s)","location":"Almanor Legacy Campground"},{"name":"CANNON BEACH CAMPGROUND","type":"campsite","lat":59.4977924,"lng":-139.7424246,"description":"There are three tent platforms along the beach bluff to the North West of the Cannon Beach Day use area. These sites consists of a tent platform that can be covered with a tarp, a picnic table and a f...\n\nType: Campground | Season: Year round | Fee: No fee required | Water: No | Restroom: Portable Toilets for each site.","location":"Cannon Beach Campground"},{"name":"BEAR WALLOW","type":"campsite","lat":36.8589052,"lng":-119.0903823,"description":"Located along north side of the Kings River on a large sandy flat area. Take a day hike on the Bear Wallow trail located just west of the campground. Great place for camping in spring and fall. Very h...\n\nType: Camping Area | Season: Open all year | Fee: No fee required | Water: No | Restroom: Vault","location":"BEAR WALLOW"},{"name":"NORTH FORK CG","type":"campsite","lat":40.0582873,"lng":-107.4346757,"description":"The North Fork Campground is set in an aspen grove overlooking the North Fork of the White River. Most sites are widely spaced, and a heavy understory of tall grass and wild roses provides privacy. Th...\n\nType: Campground | Season: May 14, 2021 | Fee: Overnight Use: | Water: Yes | Restroom: Yes","location":"North Fork Campground"},{"name":"LOWER RUSH CREEK","type":"campsite","lat":41.2933387,"lng":-120.878069,"description":"Shady campsites and a creek running along side makeLower Rush Creek Campgrounda great getaway destination. Trailers larger than 22 feet are not recommended.In the winter months roads may become sofeet...\n\nType: Campground | Season: Facilities open as weather permits; Campground is inaccessible during inclement weather. Use Caution | Fee: No fee required | Water: None | Restroom: Vault Toilets","location":"LOWER RUSH CREEK"},{"name":"QUEMADO LAKE - EL CASO CG #3","type":"campsite","lat":34.1381754,"lng":-108.4683103,"description":"QUEMADO LAKE - EL CASO CG #3 (Campground)\n\nType: Campground | Season: Year-round | Fee: No fee required | Water: No | Restroom: Vault toilet","location":"Quemado Lake - El Caso Cg #3"},{"name":"CRESTLINE GROUP CAMPGROUND","type":"campsite","lat":33.3127048,"lng":-116.8627119,"description":"50 person capacity.\n\nType: Group Campground | Season: January | Fee: No fee required | Water: Water | Restroom: Vault Toilet","location":"Crestline"},{"name":"SUNSET CAMPGROUND","type":"campsite","lat":42.3683533,"lng":-122.2052828,"description":"Located 40 minutes west of Klamath Falls, Oregon, Sunset Campground provides 64 camp sites and a camp host. These campsites include picnic tables, and fire rings. All 64 camp sites provide RV parking ...\n\nType: Campground | Season: 5 | Fee: Overnight Use: | Water: Yes, drinking water is available from a hand pump | Restroom: Flush toilet(s)","location":"SUNSET"},{"name":"OHMER CREEK CAMPGROUND","type":"campsite","lat":56.5773247,"lng":-132.7407305,"description":"The Ohmer Creek Campground is on a minimal maintenance schedule due to budget constraints. Please pack in/pack out your trash and use restroom facilities at neighboring Forest Service recreation areas...\n\nType: Campground | Season: No open/close season - available for day use and limited overnight use | Fee: No fee required | Water: No | Restroom: Use neighboring Forest Service facilities or self-contained camping unit","location":"Ohmer Creek Campground"},{"name":"MINGUS MOUNTAIN CAMPGROUND","type":"campsite","lat":34.6925662,"lng":-112.1205344,"description":"Located in the cool pines atop Mingus Mountain, this campground offers a spectacular view of the Verde Valley, the red rocks of Sedona, the San Francisco Peaks near Flagstaff, and the Mogollon Rim. Th...\n\nType: Campground | Season: May 1 - October 31 | Fee: Overnight Use: | Water: Yes, drinking water is available from faucets | Restroom: Vault toilet(s)","location":"Mingus Mountain Campground"},{"name":"MESA","type":"campsite","lat":33.0322547,"lng":-108.1563975,"description":"MESA (Campground)\n\nType: Campground | Season: March - December | Water: Yes | Restroom: Vault toilet","location":"Mesa"},{"name":"JACK CREEK CAMPGROUND","type":"campsite","lat":41.5174488,"lng":-116.0568636,"description":"Generally open May to November as weather and conditions allow. Campground is situated in a beautiful, historic area. Sites are in an open cottonwood area. Please pack out all your trash. This campgro...\n\nType: Campground | Season: May | Fee: No fee required | Water: No water is available | Restroom: Vault toilet(s)","location":"JACK CREEK CAMPGROUND"},{"name":"GOLDLEDGE","type":"campsite","lat":35.8737318,"lng":-118.4559939,"description":"Camping along the North Fork of the Kern River 10 miles north of Kernville. 37 campsites. Trailers up to 30 feet. Reservable. All developed campground areas on the Forest operate under a concessionair...\n\nType: Campground | Season: May | Fee: Overnight Use: | Water: Yes, drinking water is available from a hand pump | Restroom: Vault toilet(s)","location":"Goldledge"},{"name":"CORRAL CREEK","type":"campsite","lat":35.855866,"lng":-118.4501504,"description":"Dispersed camping and day use site along the North Fork of the Kern River. Portable toilets and trash bins available during summer months. No water available. Small, short trail leads to Corral Creek ...\n\nType: Campground | Season: Open Year Round | Fee: No fee required | Water: No drinking water is available | Restroom: Portable toilet(s)","location":"CORRAL CREEK"},{"name":"ELAM","type":"campsite","lat":40.2460452,"lng":-121.4489094,"description":"Elam is a developed campground along upper Deer Creek with 12 designated sites; most can accommodate a small to medium size RV.  Fire rings and tables provided. Elam campground is situated along Deer ...\n\nType: Campground | Season: Spring-Fall | Fee: Overnight Use: | Water: Yes, drinking water is available from a hand pump | Restroom: Vault toilet(s)","location":"Elam Campground"},{"name":"FLETCHER VIEW CAMPGROUND","type":"campsite","lat":36.2624053,"lng":-115.6179119,"description":"Campground set in a timbered area that is open year around. This campground is near the Fletcher Canyon Trailhead.\n\nType: Campground | Season: January | Fee: Overnight Use: | Water: Yes, drinking water is available from faucets | Restroom: Flush toilet(s)","location":"FLETCHER VIEW CAMPGROUND"},{"name":"HEAD OF THE DITCH","type":"campsite","lat":33.8188492,"lng":-108.9908857,"description":"HEAD OF THE DITCH (Campground)\n\nType: Campground | Season: Year-round | Fee: No fee required | Water: No | Restroom: Vault toilet","location":"Head of the Ditch"},{"name":"BELL FARM HORSE CAMP","type":"campsite","lat":36.6684842,"lng":-84.6682365,"description":"Bell Farm Horse Camp is located off Road 1363 in McCreary County and is a popular place for wagon train riders who come to \"rest a spell.\"  In the early 1900s, this area was a logging and mining town....\n\nType: Horse Camp | Season: April 1 - November 15 | Fee: No fee required | Water: No drinking water is available | Restroom: Vault toilet(s)","location":"Bell Farm Horse Camp"},{"name":"HERCULES TOWER TRAILHEAD","type":"campsite","lat":36.6847876,"lng":-92.8828968,"description":"Hercules Glades ? a combination of open grassland, forested knobs, steep rocky hillsides, and narrow drainages ? offers unusual beauty and a measure of solitude within easy reach of wilderness lovers....\n\nType: Camping Area | Fee: No fee required | Water: No drinking water is available | Restroom: Vault toilet(s)","location":"Hercules Tower Trailhead"},{"name":"ROCKY CANYON","type":"campsite","lat":33.1002899,"lng":-108.0130946,"description":"ROCKY CANYON (Campground)\n\nType: Campground | Season: Year-round | Fee: No fee required | Water: No | Restroom: Vault Toilet","location":"Rocky Canyon"},{"name":"MCWILLIAMS  CAMPGROUND","type":"campsite","lat":36.3105663,"lng":-115.6777109,"description":"Near the Lee Canyon Ski Area. Entire campground is generally open May to October as weather and conditions allow. Sites 1-14 are available all year. For more information on winter operations, visit: h...\n\nType: Campground | Season: May | Fee: Overnight Use: | Water: Yes, drinking water is available from faucets | Restroom: Flush toilet(s)","location":"Mcwilliams  Campground"},{"name":"WEST LAKE","type":"campsite","lat":40.7887615,"lng":-105.5682754,"description":"West Lake Campground is located 48 miles northwest of Fort Collins, Colorado, near Red Feather Lakes. The campground is adjacent to West Lake in a mountainous, ponderosa pine forest. There are 36 site...\n\nType: Campground | Season: 5/20 | Fee: Overnight Use: | Water: Yes, drinking water is available from a hand pump | Restroom: Vault toilet(s)","location":"West Lake Campground"},{"name":"PAVLAK CAMPGROUND","type":"campsite","lat":41.8468059,"lng":-115.4285126,"description":"Generally, open June to October as weather and conditions allow.\n\nType: Campground | Season: June | Fee: No fee required | Water: No water is available | Restroom: Vault toilet(s)","location":"Pavlak Campground"},{"name":"FORKS","type":"campsite","lat":33.1831222,"lng":-108.2056377,"description":"FORKS (Campground)\n\nType: Campground | Season: Year-round | Fee: No fee required | Water: No | Restroom: Vault toilet","location":"Forks"},{"name":"SAPILLO","type":"campsite","lat":33.0080123,"lng":-108.1152446,"description":"SAPILLO (Group Campground)\n\nType: Group Campground | Season: Year-round | Fee: No fee required | Water: No | Restroom: Vault toilet","location":"Sapillo"},{"name":"SOUTH FORK","type":"campsite","lat":33.5286353,"lng":-108.5862103,"description":"SOUTH FORK (Campground)\n\nType: Campground | Season: Year-round | Fee: No fee required | Water: No | Restroom: Vault toilet","location":"South Fork"},{"name":"LOWER BLACK CANYON","type":"campsite","lat":33.1844421,"lng":-108.0339686,"description":"LOWER BLACK CANYON (Campground)\n\nType: Campground | Season: year-round | Fee: No fee required | Water: No | Restroom: Vault toilet","location":"Lower Black Canyon"},{"name":"WOODED HILL GROUP CAMP","type":"campsite","lat":32.8525048,"lng":-116.4305118,"description":"Wooded Hill Group Campground is a great mountain getaway for groups of up to 110 people to take a retreat from the city. Just one hour east of San Diego, California, the campground offers cooler tempe...\n\nType: Group Campground | Season: Memorial Day Weekend | Fee: Overnight: | Water: Yes | Restroom: Vault Toilet","location":"Wooded Hill Group Camp"},{"name":"UPPER BLACK CANYON","type":"campsite","lat":33.1852889,"lng":-108.0306803,"description":"UPPER BLACK CANYON (Campground)\n\nType: Campground | Season: Year-round | Fee: No fee required | Water: No | Restroom: Vault toilet","location":"Upper Black Canyon"},{"name":"RAILROAD CANYON","type":"campsite","lat":32.9083533,"lng":-107.817103,"description":"RAILROAD CANYON (Campground)\n\nType: Campground | Season: Year-round | Fee: No fee required | Water: No | Restroom: Vault toilet","location":"Railroad Canyon"},{"name":"UPPER GALLINAS","type":"campsite","lat":32.898809,"lng":-107.8235727,"description":"UPPER GALLINAS (Campground)\n\nType: Campground | Season: Year-round | Fee: No fee required | Water: No | Restroom: Vault toilet","location":"Upper Gallinas"},{"name":"UPPER END","type":"campsite","lat":33.0275779,"lng":-108.1523005,"description":"UPPER END (Campground)\n\nType: Campground | Season: Year-round | Fee: Overnight Use: | Water: Yes | Restroom: Vault toilet","location":"Upper End"},{"name":"APACHE CREEK","type":"campsite","lat":33.8288094,"lng":-108.6277112,"description":"APACHE CREEK (Campground)\n\nType: Campground | Season: Year-round | Fee: No fee required | Water: No | Restroom: Vault toilet","location":"Apache Creek"},{"name":"CHERRY CREEK","type":"campsite","lat":32.9141745,"lng":-108.2247264,"description":"CHERRY CREEK (Campground)\n\nType: Campground | Season: Year-round | Fee: No fee required | Water: No | Restroom: Vault toilet","location":"Cherry Creek"},{"name":"BURNT RANCHERIA CAMPGROUND","type":"campsite","lat":32.8605048,"lng":-116.4172118,"description":"Burnt Rancheria Campground is located 50 miles east of San Diego at the Laguna Mountain Recreation Area in Southern California, right off the Sunrise Scenic Byway.Campers can enjoy hiking, viewing uni...\n\nType: Campground | Season: late March | Fee: Overnight Use: | Water: Yes | Restroom: Vault Toilets","location":"Burnt Rancheria Campground"},{"name":"COTTONWOOD","type":"campsite","lat":33.618917,"lng":-108.8950986,"description":"COTTONWOOD (Campground)\n\nType: Campground | Season: year-round | Fee: No fee required | Water: No | Restroom: Vault toilet","location":"Cottonwood"},{"name":"KAATS'HEENI YANSHUKA","type":"campsite","lat":59.5859784,"lng":-139.4955607,"description":"There are 6 separate tent platform sites here. Each site has a tent platform that can be covered by a tarp, picnic table, and a fire ring. Close access to the boat launch on the Situk River. There is ...\n\nType: Campground | Season: as long as road is open | Fee: No fee required | Water: No | Restroom: Vault Toilet","location":"Kaats'Heeni Yanshuka"},{"name":"STANEY BRIDGE","type":"campsite","lat":55.8069214,"lng":-133.1225191,"description":"The Staney Bridge dispersed camping area is located just west of the Staney Creek crossing on Forest Service Road 2050. The dispersed camping area offers two sites, each with a hardened tent site, a f...\n\nType: Camping Area | Season: Spring | Fee: No fee required | Water: No | Restroom: No","location":"STANEY BRIDGE"},{"name":"RIVER FOREST","type":"campsite","lat":29.0128221,"lng":-81.3897031,"description":"River Forest is a shaded group camping facility on the shores of the St. Johns River in Ocala National Forest. Located just across the river from Deland, the site is popular for groups, family reunion...\n\nType: Group Campground | Fee: Overnight Use: | Water: Yes, drinking water is available from faucets | Restroom: Flush toilet(s)","location":"River Forest"},{"name":"WEST TOWER","type":"campsite","lat":30.3247057,"lng":-82.5582035,"description":"WEST TOWER CAMPGROUND\n\nType: Campground | Fee: No fees are required for this site | Water: Yes, drinking water is available from a hand pump | Restroom: Flush toilet(s)","location":"West Tower"},{"name":"PORCUPINE ISLAND CAMP","type":"campsite","lat":60.4032172,"lng":-149.6230961,"description":"PORCUPINE ISLAND CAMP (Campground)\n\nType: Campground | Fee: No fee required | Water: NOT AVAILABLE | Restroom: PIT TOILET","location":"Porcupine Island Camp"},{"name":"FORE LAKE","type":"campsite","lat":29.2702388,"lng":-81.9184866,"description":"In the stillness of the morning fog, a red-shouldered hawk calls out with an echo across Fore Lake. Bounded by marshes, this lake in a scrub ecosystem is an excellent spot for birding from the shores ...\n\nType: Campground | Fee: Overnight Use: | Water: Yes, drinking water is available from faucets | Restroom: Flush toilet(s)","location":"FORE LAKE"},{"name":"TURN ISLAND BEACH","type":"campsite","lat":56.250511,"lng":-132.3373692,"description":"Located on the west shore of Wrangell Island, Turn Island Beach Campsite includes two tent platforms for camping and picnicking with a shared outhouse facility.  The site is on saltwater, and can be a...\n\nType: Campground | Fee: No fee required | Water: No | Restroom: Outhouse","location":"TURN ISLAND BEACH"},{"name":"SHANTY POND RECREATION AREA","type":"campsite","lat":29.3325722,"lng":-81.7314032,"description":"SHANTY POND RECREATION AREA\n\nType: Campground | Fee: No fee required | Water: No water is available | Restroom: Vault toilet(s)","location":"SHANTY POND RECREATION AREA"},{"name":"TURKEY RUN PRIMITIVE CAMP","type":"campsite","lat":30.2805613,"lng":-82.4791702,"description":"TURKEY RUN TRAILHEAD  FNST Camp Shelter with Kiosk\n\nType: Campground | Fee: No fee required | Water: No drinking water is available | Restroom: No restroom available","location":"Turkey Run Primitive Camp"},{"name":"DOUBLE LAKE","type":"campsite","lat":30.5526054,"lng":-95.132507,"description":"Double Lake Recreation Area was built in 1937 by the Civilian Conservation Corps and offers a little of everything, including camping, fishing, swimming, picnicking, hiking and simply relaxing in natu...\n\nType: Campground | Fee: Overnight Use: | Water: Yes, drinking water is available from faucets | Restroom: Yes, Flush toilet(s)","location":"Double Lake"},{"name":"MEADOW CREEK CG","type":"campsite","lat":60.3948715,"lng":-149.4295077,"description":"MEADOW CREEK CG (Camping Area)\n\nType: Camping Area | Fee: No fee required | Water: NOT AVAILABLE | Restroom: PIT TOILET","location":"Meadow Creek Cg"},{"name":"SHIP CREEK CG","type":"campsite","lat":60.3887667,"lng":-149.5132393,"description":"SHIP CREEK CG (Camping Area)\n\nType: Camping Area | Fee: No fee required | Water: NOT AVAILABLE | Restroom: PIT TOILET","location":"Ship Creek Cg"},{"name":"BIG BASS","type":"campsite","lat":28.9851554,"lng":-81.7841032,"description":"Spend your next short- or long-term camping trip at Big Bass. With the occasional black bear sighting, this the perfect location to escape the hustle of the city and get back to nature. We offer both ...\n\nType: Campground | Fee: Overnight Use: | Water: Yes, drinking water is available from faucets | Restroom: Vault toilet(s)","location":"Big Bass"},{"name":"THREE SISTERS","type":"campsite","lat":56.2927942,"lng":-132.3468532,"description":"The Three Sisters Overlook Campsite is a fully accessible, single occupancy site on the Nemo Loop Road (6267) on Wrangell Island. Site overlooks Zimovia Strait, with spectacular views of the three sis...\n\nType: Campground | Fee: No fee required | Water: No | Restroom: Outhouse","location":"THREE SISTERS"},{"name":"STUBBLEFIELD LAKE","type":"campsite","lat":30.5597053,"lng":-95.6377071,"description":"Stubblefield Lake Recreation Area was built in 1937 by the Civilian Conservation Corps as part of one of President Franklin D. Roosevelt's New Deal programs. Just an hour north of Houston, in the Sam ...\n\nType: Campground | Fee: Overnight Use: | Water: Yes, drinking water is available from faucets | Restroom: Flush toilet(s)","location":"Stubblefield Lake"},{"name":"LAKE SHORE GROUP CAMP","type":"campsite","lat":29.2740222,"lng":-81.9176533,"description":"Lake Shore Group Campground sits on the north shore of Fore Lake in Ocala National Forest. It is a favorite for scout, church and civic groups, as well as large families and reunions.\n\nType: Group Campground | Fee: Overnight Use: | Water: Yes, drinking water is available from faucets | Restroom: Flush toilet(s)","location":"LAKE SHORE GROUP CAMP"},{"name":"NEMO CAMPSITE","type":"campsite","lat":56.3053714,"lng":-132.3395155,"description":"Entry and Information site for the Nemo Campsites on Wrangell Island. Site is occupied by Wrangell Island Host Volunteers, and used for evening campground programs in the summer months. Available for ...\n\nType: Campground | Fee: No fee required | Water: No | Restroom: Outhouse","location":"NEMO CAMPSITE"},{"name":"CYPRESS CREEK LANDING","type":"campsite","lat":30.9682057,"lng":-89.0041054,"description":"Cypress Creek Landing is located high on a bluff overlooking Black Creek 7 miles downstream from Janice Landing.\n\nType: Campground | Fee: Overnight Use: | Water: Yes, drinking water is available from a hand pump | Restroom: Flush toilet(s)","location":"Cypress Creek Landing"},{"name":"LONG LAKE","type":"campsite","lat":56.2782717,"lng":-132.1216552,"description":"The Long Lake Campsite is a fully accessible, single occupancy site on the 6271 Road on Wrangell Island.\n\nType: Campground | Fee: No fee required | Water: Water available from lake. Treat all water before using. | Restroom: Outhouse","location":"Long Lake"},{"name":"THE LANDING","type":"campsite","lat":30.2171057,"lng":-82.4235035,"description":"THE LANDING (Group Campground) Advance reservations required/ 6 month advance booking.\n\nType: Group Campground | Fee: Overnight Use: | Water: Yes, drinking water is available from faucets | Restroom: Flush toilet(s)","location":"The Landing"},{"name":"OCEAN POND CAMPGROUND","type":"campsite","lat":30.2394057,"lng":-82.4327035,"description":"OCEAN POND CAMPGROUND (Campground) 19 electric 26 water and 22 primitive\n\nType: Campground | Fee: Overnight Use: | Water: Yes, drinking water is available from faucets | Restroom: Flush toilet(s)","location":"Ocean Pond Campground"},{"name":"LAKE NUMBER 3","type":"campsite","lat":55.6416202,"lng":-132.578441,"description":"The Lake No. 3 dispersed camping area is named for the lake that one of the sites overlooks. This small camping area has 2 hardened campsites, fire rings and picnic tables available for visitors looki...\n\nType: Camping Area | Fee: No fee required | Water: No | Restroom: No","location":"LAKE NUMBER 3"},{"name":"EAST TOWER","type":"campsite","lat":30.3837058,"lng":-82.3305035,"description":"EAST TOWER CAMPGROUND\n\nType: Campground | Fee: No fee required | Water: No drinking water is available | Restroom: No restroom available","location":"EAST TOWER"},{"name":"BUCK LAKE","type":"campsite","lat":29.0984555,"lng":-81.6508699,"description":"Buck Lake is a group camping facility in the heart of Ocala National Forest in Florida. Great for family reunions and social gatherings, the campground can host a group of up to 50 guests along the sh...\n\nType: Group Campground | Fee: Overnight Use: | Water: Yes, drinking water is available from a hand pump | Restroom: Vault toilet(s)","location":"BUCK LAKE"},{"name":"BIG FOOT HORSE CAMP","type":"campsite","lat":30.6832056,"lng":-89.0393054,"description":"This horse trail is approximately 23.7 miles long and moderate in difficulty. Big Foot Horse Trail consists of four loops ranging in length from 5 to 11 miles. A ride of almost any desired length can ...\n\nType: Horse Camp | Fee: No fee required | Water: No drinking water is available | Restroom: Vault toilet(s)","location":"Big Foot Horse Camp"},{"name":"PORTER HUNT CAMP & TRAILHEAD","type":"campsite","lat":30.1766347,"lng":-84.677221,"description":"Primary access to Porter Lake, Primitive camping and vault toilet\n\nType: Campground | Fee: No fee required | Water: Not for drinking | Restroom: Vault toilet(s)","location":"PORTER HUNT CAMP & TRAILHEAD"},{"name":"YUNSHOOKUH LOOP","type":"campsite","lat":56.3026053,"lng":-132.3437603,"description":"The Yunshookuh Loop Campsite is a fully accessible campground with options for RV or tent camping (no hookups). Space for three groups, with shared outhouse between sites. A 12?x 16? covered picnic sh...\n\nType: Campground | Fee: No fee required | Water: No | Restroom: Outhouse","location":"Yunshookuh Loop Campsite"},{"name":"BIG BILOXI REC AREA","type":"campsite","lat":30.5691056,"lng":-89.1297054,"description":"The Big Biloxi Recreation Area lies on the banks of the Big Biloxi River.  The area provides a cool, refreshing experience from cities nearby. Facilities include 25 camping units, all with utility hoo...\n\nType: Campground | Fee: Overnight Use: | Water: Yes, drinking water is available from faucets | Restroom: Flush toilet(s)","location":"Big Biloxi Rec Area"},{"name":"ALEXANDER SPRINGS","type":"campsite","lat":29.0792555,"lng":-81.5795532,"description":"Alexander Springs Recreation Area is located in the Ocala National Forest near the beautiful, turquoise waters of Alexander Springs. With forested scenery and abundant water, the recreation area offer...\n\nType: Campground | Fee: Overnight Use: | Water: Yes, drinking water is available from faucets | Restroom: Flush toilet(s)","location":"Alexander Springs"},{"name":"THOMS CREEK CROSSING","type":"campsite","lat":56.1956692,"lng":-132.1566922,"description":"The Thoms Creek Crossing Campsite is a fully accessible, single occupancy campsite on the south end of Wrangell Island.  Access is via a short footpath from the parking area at the bridge to the site ...\n\nType: Campground | Fee: No fee required | Water: No | Restroom: Outhouse","location":"THOMS CREEK CROSSING"},{"name":"UPPER SALAMANDER CREEK","type":"campsite","lat":56.3029561,"lng":-132.2163509,"description":"The Upper Salamander Creek campsite is a fully accessible, single occupancy site on Wrangell Island.  Access to site is via a 700 foot gravel path from the parking area on the road to the site overloo...\n\nType: Campground | Fee: No fee required | Water: No | Restroom: Outhouse","location":"UPPER SALAMANDER CREEK"},{"name":"ANITA BAY OVERLOOK","type":"campsite","lat":56.2807876,"lng":-132.3499576,"description":"Two sites. Each site provides excellent view of Zimovia Strait and the Three Sisters range on Etolin Island. Both sites are fully accessible\n\nType: Campground | Fee: No fee required | Water: No | Restroom: Outhouse","location":"ANITA BAY OVERLOOK"},{"name":"LOWER SALAMANDER CREEK","type":"campsite","lat":56.3396401,"lng":-132.2014352,"description":"Site is located next to Salamander Creek. There are 3 separate covered picnic shelters each with a picnic table and fire ring. A small sandy beach is located next to the shelter closest to the creek a...\n\nType: Campground | Fee: No fee required | Water: Water available from Salamander Creek.  Treat all water before using | Restroom: Outhouse","location":"LOWER SALAMANDER CREEK"},{"name":"HORSESHOE HOLE","type":"campsite","lat":55.8140625,"lng":-133.1314279,"description":"The Horseshoe Hole dispersed camping area is situated at the end of a timber road in the Staney Creek watershed and offers two campsites. It is only a quick walk through the woods to Horseshoe Hole on...\n\nType: Camping Area | Fee: No fee required | Water: No | Restroom: No","location":"HORSESHOE HOLE"},{"name":"STARRIGAVAN CAMPGROUND","type":"campsite","lat":57.1300871,"lng":-135.3604488,"description":"Starrigavan Recreation Area - 34 primitive campsites located in 3 loops  fully ADA accessible.\n\nType: Campground | Fee: Overnight Use: | Water: Yes | Restroom: Vault toilets","location":"Starrigavan Rec Area - Campsites"},{"name":"NORTH BEACH DISPERSED CAMPING AREA","type":"campsite","lat":57.170975,"lng":-135.761514,"description":"NORTH BEACH DISPERSED CAMPING AREA (Camping Area)\n\nType: Camping Area | Fee: No fee required","location":"North Beach Dispersed Camping Area"},{"name":"KUNK LAKE CAMPING AREA","type":"campsite","lat":56.2816615,"lng":-132.4139152,"description":"KUNK LAKE CAMPING AREA (Camping Area)\n\nType: Camping Area | Fee: No fee required","location":"Kunk Lake Camping Area"},{"name":"SIGNAL CREEK","type":"campsite","lat":55.4083206,"lng":-131.7009708,"description":"The Signal Creek Campground is a drive-in campground with 24 units. Stay in stunning campsites surrounded by giant spruce, hemlock, and cedar trees. This area is adjacent to Ward Lake, hiking trails, ...\n\nType: Campground | Season: May | Fee: Overnight Use: | Water: Non-potable water | Restroom: Toilet","location":"Signal Creek Campground"},{"name":"SAWMILL CREEK CAMPGROUND","type":"campsite","lat":57.0614757,"lng":-135.2083647,"description":"Primitive campground with 4 overnight sites and 1 day use covered picnic shelter.\n\nType: Campground | Season: Mid May | Water: Sawmill Creek. Untreated creek water | Restroom: Vault Toilet","location":"Sawmill Creek"},{"name":"HARRIS RIVER CAMPGROUND","type":"campsite","lat":55.4672257,"lng":-132.8561842,"description":"The Harris River Campground has 14 drive-in campsites, with space for a small to medium-sized RV, picnic tables, and fire rings. Two outhouses are available. A short trail leads visitors through a mus...\n\nType: Campground | Season: April | Fee: Overnight Use: | Water: No | Restroom: Vault Toilets (2)","location":"Harris River Campground"},{"name":"LAST CHANCE CAMPGROUND","type":"campsite","lat":55.4310643,"lng":-131.6863184,"description":"Last Chance Campground is located in the Ward Lake Recreation Area, 9 miles north of downtown Ketchikan and about 4 miles north of the State ferry terminal. This campground straddles Last Chance Creek...\n\nType: Campground | Season: May | Fee: Overnight Use: | Water: Non-potable water | Restroom: Toilet","location":"Last Chance Campground"},{"name":"WHITE SULPHUR SPRINGS DISPERSED CAMPING AREA","type":"campsite","lat":57.8050567,"lng":-136.3397089,"description":"WHITE SULPHUR SPRINGS (Camping Area)\n\nType: Camping Area | Fee: No fee required","location":"White Sulphur Springs"},{"name":"EAGLES NEST","type":"campsite","lat":55.7030306,"lng":-132.841971,"description":"Eagle 's Nest Campground is nestled in the forest above the scenic Balls Lake. The campground provides 12 camping sites, including ten drive-in sites and two walk-in locations along the lake side. One...\n\nType: Campground | Fee: Overnight Use: | Water: No | Restroom: Vault Toilets (2)","location":"Eagles Nest Campground"},{"name":"THREE C'S","type":"campsite","lat":55.4106706,"lng":-131.6950598,"description":"This campground has 4 drive-in camping units available with paved road access. Facilities include fire rings, garbage cans, vault toilets, and hand pump water - no hookups. This site is available for ...\n\nType: Group Campground | Fee: Overnight Use: | Water: Drinking Water | Restroom: Toilet (2)","location":"THREE C'S"},{"name":"SAWMILL CREEK GROUP CAMPGROUND","type":"campsite","lat":57.0615781,"lng":-135.2099389,"description":"SAWMILL CREEK GROUP (Group Campground)\n\nType: Group Campground | Fee: Overnight Use: | Water: Sawmill Creek. Untreated creek water | Restroom: Vault Toilet","location":"Sawmill Creek Group"},{"name":"EL CAPITAN CAMPGROUND","type":"campsite","lat":56.1624934,"lng":-133.3210243,"description":"EL CAP CAMPGROUND (Campground)\n\nType: Campground | Fee: Overnight Use: | Restroom: Vault Toilet","location":"El Cap Campground"}]